{"ultima_fecha":20210213,"ultima_fecha_es":"13/02/2021","total":105670,"penultima_fecha":20210212,"penultima_fecha_es":"12/02/2021","penultimo_total":86856,"diferencia_total":18814,"departamentos":[{"id":"PE-AMA","nombre":"amazonas","nombre_original":"Amazonas","casos":1011,"porcentaje":0.009567521529289297,"longitud":"-77.85","latitud":"-6.22","provincias":[{"nombre":"bagua","casos":252},{"nombre":"bongara","casos":70},{"nombre":"chachapoyas","casos":386},{"nombre":"condorcanqui","casos":67},{"nombre":"rodriguez de mendoza","casos":54},{"nombre":"utcubamba","casos":182}]},{"id":"PE-ANC","nombre":"ancash","nombre_original":"Áncash","casos":2746,"porcentaje":0.025986561938109207,"longitud":"-77.93","latitud":"-9.56","provincias":[{"nombre":"asuncion","casos":31},{"nombre":"bolognesi","casos":23},{"nombre":"carhuaz","casos":88},{"nombre":"carlos fermin fitzcarrald","casos":8},{"nombre":"casma","casos":150},{"nombre":"huaraz","casos":668},{"nombre":"huari","casos":104},{"nombre":"huarmey","casos":84},{"nombre":"huaylas","casos":152},{"nombre":"mariscal luzuriaga","casos":13},{"nombre":"pomabamba","casos":95},{"nombre":"recuay","casos":60},{"nombre":"santa","casos":1108},{"nombre":"sihuas","casos":55},{"nombre":"yungay","casos":107}]},{"id":"PE-APU","nombre":"apurimac","nombre_original":"Apurímac","casos":2701,"porcentaje":0.025560707864105234,"longitud":"-72.94","latitud":"-14.05","provincias":[{"nombre":"abancay","casos":1026},{"nombre":"andahuaylas","casos":1085},{"nombre":"antabamba","casos":42},{"nombre":"aymaraes","casos":79},{"nombre":"chincheros","casos":220},{"nombre":"cotabambas","casos":171},{"nombre":"grau","casos":78}]},{"id":"PE-ARE","nombre":"arequipa","nombre_original":"Arequipa","casos":3921,"porcentaje":0.03710608498154632,"longitud":"-71.54","latitud":"-16.40","provincias":[{"nombre":"arequipa","casos":3466},{"nombre":"camana","casos":146},{"nombre":"castilla","casos":86},{"nombre":"caylloma","casos":115},{"nombre":"condesuyos","casos":18},{"nombre":"islay","casos":59},{"nombre":"la union","casos":31}]},{"id":"PE-AYA","nombre":"ayacucho","nombre_original":"Ayacucho","casos":2703,"porcentaje":0.025579634711838745,"longitud":"-74.22","latitud":"-13.16","provincias":[{"nombre":"cangallo","casos":162},{"nombre":"huamanga","casos":1293},{"nombre":"huanca sancos","casos":41},{"nombre":"huanta","casos":322},{"nombre":"la mar","casos":337},{"nombre":"lucanas","casos":202},{"nombre":"parinacochas","casos":171},{"nombre":"paucar del sara sara","casos":62},{"nombre":"sucre","casos":31},{"nombre":"victor fajardo","casos":30},{"nombre":"vilcas huaman","casos":52}]},{"id":"PE-CAJ","nombre":"cajamarca","nombre_original":"Cajamarca","casos":3040,"porcentaje":0.028768808554935174,"longitud":"-78.50","latitud":"-7.16","provincias":[{"nombre":"cajabamba","casos":154},{"nombre":"cajamarca","casos":1225},{"nombre":"celendin","casos":89},{"nombre":"chota","casos":170},{"nombre":"contumaza","casos":119},{"nombre":"cutervo","casos":243},{"nombre":"hualgayoc","casos":121},{"nombre":"jaen","casos":655},{"nombre":"san ignacio","casos":94},{"nombre":"san marcos","casos":61},{"nombre":"san miguel","casos":34},{"nombre":"san pablo","casos":30},{"nombre":"santa cruz","casos":45}]},{"id":"PE-CAL","nombre":"callao","nombre_original":"Callao","casos":5506,"porcentaje":0.05210561181035299,"longitud":"-77.12","latitud":"-12.06","provincias":[{"nombre":"callao","casos":5506}]},{"id":"PE-CUS","nombre":"cusco","nombre_original":"Cusco","casos":3721,"porcentaje":0.03521340020819533,"longitud":"-71.97","latitud":"-13.52","provincias":[{"nombre":"acomayo","casos":27},{"nombre":"anta","casos":64},{"nombre":"calca","casos":91},{"nombre":"canas","casos":55},{"nombre":"canchis","casos":248},{"nombre":"chumbivilcas","casos":70},{"nombre":"cusco","casos":2410},{"nombre":"espinar","casos":101},{"nombre":"la convencion","casos":380},{"nombre":"paruro","casos":18},{"nombre":"paucartambo","casos":45},{"nombre":"quispicanchi","casos":104},{"nombre":"urubamba","casos":108}]},{"id":"PE-HUV","nombre":"huancavelica","nombre_original":"Huancavelica","casos":1246,"porcentaje":0.01179142613797672,"longitud":"-74.97","latitud":"-12.78","provincias":[{"nombre":"acobamba","casos":122},{"nombre":"angaraes","casos":121},{"nombre":"castrovirreyna","casos":32},{"nombre":"churcampa","casos":48},{"nombre":"huancavelica","casos":633},{"nombre":"huaytara","casos":27},{"nombre":"tayacaja","casos":263}]},{"id":"PE-HUC","nombre":"huanuco","nombre_original":"Huánuco","casos":2162,"porcentaje":0.020459922399924294,"longitud":"-76.24","latitud":"-9.93","provincias":[{"nombre":"dos de mayo","casos":84},{"nombre":"huanuco","casos":1389},{"nombre":"leoncio prado","casos":689}]},{"id":"PE-ICA","nombre":"ica","nombre_original":"Ica","casos":3777,"porcentaje":0.0357433519447336,"longitud":"-75.729","latitud":"-14.07","provincias":[{"nombre":"chincha","casos":913},{"nombre":"ica","casos":1807},{"nombre":"nazca","casos":337},{"nombre":"palpa","casos":108},{"nombre":"pisco","casos":612}]},{"id":"PE-JUN","nombre":"junin","nombre_original":"Junín","casos":5846,"porcentaje":0.055323175925049685,"longitud":"-74.79","latitud":"-11.56","provincias":[{"nombre":"chanchamayo","casos":982},{"nombre":"chupaca","casos":112},{"nombre":"concepcion","casos":111},{"nombre":"huancayo","casos":2819},{"nombre":"jauja","casos":313},{"nombre":"junin","casos":147},{"nombre":"satipo","casos":621},{"nombre":"tarma","casos":515},{"nombre":"yauli","casos":226}]},{"id":"PE-LAL","nombre":"la libertad","nombre_original":"La Libertad","casos":6664,"porcentaje":0.06306425664805526,"longitud":"-78.28","latitud":"-7.97","provincias":[{"nombre":"ascope","casos":312},{"nombre":"bolivar","casos":40},{"nombre":"chepen","casos":271},{"nombre":"gran chimu","casos":56},{"nombre":"julcan","casos":72},{"nombre":"otuzco","casos":208},{"nombre":"pacasmayo","casos":331},{"nombre":"pataz","casos":61},{"nombre":"sanchez carrion","casos":217},{"nombre":"santiago de chuco","casos":102},{"nombre":"trujillo","casos":4788},{"nombre":"viru","casos":206}]},{"id":"PE-LAM","nombre":"lambayeque","nombre_original":"Lambayeque","casos":3337,"porcentaje":0.03157944544336141,"longitud":"-79.91","latitud":"-6.70","provincias":[{"nombre":"chiclayo","casos":2880},{"nombre":"ferreñafe","casos":151},{"nombre":"lambayeque","casos":306}]},{"id":"PE-LMA","nombre":"lima","nombre_original":"Lima Metropolitana","casos":40177,"porcentaje":0.3802119806946153,"longitud":"-76.95","latitud":"-11.9","provincias":[{"nombre":"barranca","casos":576},{"nombre":"cañete","casos":567},{"nombre":"huaral","casos":743},{"nombre":"huarochiri","casos":178},{"nombre":"huaura","casos":816},{"nombre":"lima","casos":37297}]},{"id":"PE-LOR","nombre":"loreto","nombre_original":"Loreto","casos":2281,"porcentaje":0.021586069840068136,"longitud":"-74.63","latitud":"-4.28","provincias":[{"nombre":"alto amazonas","casos":306},{"nombre":"datem del marañon","casos":62},{"nombre":"loreto","casos":142},{"nombre":"mariscal ramon castilla","casos":57},{"nombre":"maynas","casos":1681},{"nombre":"requena","casos":33}]},{"id":"PE-MDD","nombre":"madre de dios","nombre_original":"Madre de Dios","casos":375,"porcentaje":0.003548783950033122,"longitud":"-70.53","latitud":"-12.05","provincias":[{"nombre":"tambopata","casos":375}]},{"id":"PE-MOQ","nombre":"moquegua","nombre_original":"Moquegua","casos":1027,"porcentaje":0.009718936311157377,"longitud":"-70.94","latitud":"-17.20","provincias":[{"nombre":"ilo","casos":269},{"nombre":"mariscal nieto","casos":758}]},{"id":"PE-PAS","nombre":"pasco","nombre_original":"Pasco","casos":950,"porcentaje":0.008990252673417243,"longitud":"-75.53","latitud":"-10.48","provincias":[{"nombre":"daniel alcides carrion","casos":60},{"nombre":"oxapampa","casos":333},{"nombre":"pasco","casos":557}]},{"id":"PE-PIU","nombre":"piura","nombre_original":"Piura","casos":4203,"porcentaje":0.03977477051197123,"longitud":"-80.63","latitud":"-5.20","provincias":[{"nombre":"ayabaca","casos":96},{"nombre":"huancabamba","casos":233},{"nombre":"morropon","casos":383},{"nombre":"paita","casos":324},{"nombre":"piura","casos":2153},{"nombre":"sechura","casos":92},{"nombre":"sullana","casos":696},{"nombre":"talara","casos":226}]},{"id":"PE-PUN","nombre":"puno","nombre_original":"Puno","casos":2149,"porcentaje":0.020336897889656477,"longitud":"-70.04","latitud":"-15.84","provincias":[{"nombre":"azangaro","casos":96},{"nombre":"carabaya","casos":215},{"nombre":"chucuito","casos":78},{"nombre":"el collao","casos":102},{"nombre":"huancane","casos":86},{"nombre":"lampa","casos":123},{"nombre":"melgar","casos":162},{"nombre":"moho","casos":10},{"nombre":"puno","casos":569},{"nombre":"san antonio de putina","casos":16},{"nombre":"san roman","casos":555},{"nombre":"sandia","casos":96},{"nombre":"yunguyo","casos":41}]},{"id":"PE-SAM","nombre":"san martin","nombre_original":"San Martín","casos":3160,"porcentaje":0.029904419418945775,"longitud":"-76.73","latitud":"-7.23","provincias":[{"nombre":"bellavista","casos":144},{"nombre":"el dorado","casos":101},{"nombre":"huallaga","casos":40},{"nombre":"lamas","casos":128},{"nombre":"mariscal caceres","casos":113},{"nombre":"moyobamba","casos":680},{"nombre":"picota","casos":72},{"nombre":"rioja","casos":307},{"nombre":"san martin","casos":1239},{"nombre":"tocache","casos":336}]},{"id":"PE-TAC","nombre":"tacna","nombre_original":"Tacna","casos":1345,"porcentaje":0.012728305100785464,"longitud":"-70.25","latitud":"-18.01","provincias":[{"nombre":"tacna","casos":1345}]},{"id":"PE-TUM","nombre":"tumbes","nombre_original":"Tumbes","casos":867,"porcentaje":0.008204788492476578,"longitud":"-80.54","latitud":"-3.85","provincias":[{"nombre":"contralmirante villar","casos":55},{"nombre":"tumbes","casos":755},{"nombre":"zarumilla","casos":57}]},{"id":"PE-UCA","nombre":"ucayali","nombre_original":"Ucayalí","casos":755,"porcentaje":0.007144885019400019,"longitud":"-73.40","latitud":"-9.93","provincias":[{"nombre":"atalaya","casos":95},{"nombre":"coronel portillo","casos":574},{"nombre":"padre abad","casos":86}]}],"genero":[{"nombre":"f","casos":73128,"porcentaje":0.692041260528059},{"nombre":"m","casos":32542,"porcentaje":0.30795873947194097}],"edades":[{"nombre":"niños","casos":0,"porcentaje":0},{"nombre":"adolescentes","casos":0,"porcentaje":0},{"nombre":"jovenes","casos":13056,"porcentaje":0.12355446200435317},{"nombre":"adultos","casos":85173,"porcentaje":0.8060282010031229},{"nombre":"adultos mayores","casos":7381,"porcentaje":0.0698495315605186},{"nombre":"undefined","casos":60,"porcentaje":0.0005678054320052995}],"dosis":[{"nombre":"primera","casos":105670,"porcentaje":1}],"fabricantes":[{"nombre":"sinopharm","casos":105670,"porcentaje":1}],"grupo_riesgo":[{"nombre":"personal de salud","casos":104894,"porcentaje":0.9926563830793981},{"nombre":"trabajador ó personal de limpieza","casos":440,"porcentaje":0.004163906501372197},{"nombre":"personal de seguridad","casos":243,"porcentaje":0.002299611999621463},{"nombre":"estudiantes de ciencias de la salud","casos":90,"porcentaje":0.0008517081480079493},{"nombre":"brigadistas","casos":2,"porcentaje":0.000018926847733509985},{"nombre":"policia nacional del peru","casos":1,"porcentaje":0.000009463423866754993}]}