{"ultima_fecha":20210215,"ultima_fecha_es":"15/02/2021","total":122392,"penultima_fecha":20210214,"penultima_fecha_es":"14/02/2021","penultimo_total":110879,"diferencia_total":11513,"departamentos":[{"id":"PE-AMA","nombre":"amazonas","nombre_original":"Amazonas","casos":1124,"porcentaje":0.009183606771684423,"longitud":"-77.85","latitud":"-6.22","provincias":[{"nombre":"bagua","casos":289},{"nombre":"bongara","casos":70},{"nombre":"chachapoyas","casos":446},{"nombre":"condorcanqui","casos":68},{"nombre":"rodriguez de mendoza","casos":54},{"nombre":"utcubamba","casos":197}]},{"id":"PE-ANC","nombre":"ancash","nombre_original":"Áncash","casos":3097,"porcentaje":0.02530394143408066,"longitud":"-77.93","latitud":"-9.56","provincias":[{"nombre":"asuncion","casos":31},{"nombre":"bolognesi","casos":24},{"nombre":"carhuaz","casos":88},{"nombre":"carlos fermin fitzcarrald","casos":9},{"nombre":"casma","casos":167},{"nombre":"huaraz","casos":694},{"nombre":"huari","casos":112},{"nombre":"huarmey","casos":107},{"nombre":"huaylas","casos":152},{"nombre":"mariscal luzuriaga","casos":30},{"nombre":"pomabamba","casos":124},{"nombre":"recuay","casos":60},{"nombre":"santa","casos":1330},{"nombre":"sihuas","casos":61},{"nombre":"yungay","casos":108}]},{"id":"PE-APU","nombre":"apurimac","nombre_original":"Apurímac","casos":2784,"porcentaje":0.02274658474410092,"longitud":"-72.94","latitud":"-14.05","provincias":[{"nombre":"abancay","casos":1046},{"nombre":"andahuaylas","casos":1087},{"nombre":"antabamba","casos":42},{"nombre":"aymaraes","casos":85},{"nombre":"chincheros","casos":233},{"nombre":"cotabambas","casos":201},{"nombre":"grau","casos":90}]},{"id":"PE-ARE","nombre":"arequipa","nombre_original":"Arequipa","casos":6290,"porcentaje":0.051392247859337215,"longitud":"-71.54","latitud":"-16.40","provincias":[{"nombre":"arequipa","casos":5346},{"nombre":"camana","casos":281},{"nombre":"castilla","casos":157},{"nombre":"caylloma","casos":307},{"nombre":"condesuyos","casos":28},{"nombre":"islay","casos":132},{"nombre":"la union","casos":39}]},{"id":"PE-AYA","nombre":"ayacucho","nombre_original":"Ayacucho","casos":2908,"porcentaje":0.023759722857703117,"longitud":"-74.22","latitud":"-13.16","provincias":[{"nombre":"cangallo","casos":193},{"nombre":"huamanga","casos":1398},{"nombre":"huanca sancos","casos":52},{"nombre":"huanta","casos":323},{"nombre":"la mar","casos":362},{"nombre":"lucanas","casos":202},{"nombre":"parinacochas","casos":171},{"nombre":"paucar del sara sara","casos":62},{"nombre":"sucre","casos":46},{"nombre":"victor fajardo","casos":45},{"nombre":"vilcas huaman","casos":54}]},{"id":"PE-CAJ","nombre":"cajamarca","nombre_original":"Cajamarca","casos":3449,"porcentaje":0.0281799464017256,"longitud":"-78.50","latitud":"-7.16","provincias":[{"nombre":"cajabamba","casos":163},{"nombre":"cajamarca","casos":1390},{"nombre":"celendin","casos":89},{"nombre":"chota","casos":259},{"nombre":"contumaza","casos":120},{"nombre":"cutervo","casos":243},{"nombre":"hualgayoc","casos":121},{"nombre":"jaen","casos":770},{"nombre":"san ignacio","casos":100},{"nombre":"san marcos","casos":64},{"nombre":"san miguel","casos":37},{"nombre":"san pablo","casos":42},{"nombre":"santa cruz","casos":51}]},{"id":"PE-CAL","nombre":"callao","nombre_original":"Callao","casos":6140,"porcentaje":0.05016667756062488,"longitud":"-77.12","latitud":"-12.06","provincias":[{"nombre":"callao","casos":6140}]},{"id":"PE-CUS","nombre":"cusco","nombre_original":"Cusco","casos":3933,"porcentaje":0.0321344532322374,"longitud":"-71.97","latitud":"-13.52","provincias":[{"nombre":"acomayo","casos":29},{"nombre":"anta","casos":64},{"nombre":"calca","casos":91},{"nombre":"canas","casos":55},{"nombre":"canchis","casos":279},{"nombre":"chumbivilcas","casos":80},{"nombre":"cusco","casos":2410},{"nombre":"espinar","casos":133},{"nombre":"la convencion","casos":512},{"nombre":"paruro","casos":18},{"nombre":"paucartambo","casos":45},{"nombre":"quispicanchi","casos":106},{"nombre":"urubamba","casos":111}]},{"id":"PE-HUV","nombre":"huancavelica","nombre_original":"Huancavelica","casos":1508,"porcentaje":0.012321066736388,"longitud":"-74.97","latitud":"-12.78","provincias":[{"nombre":"acobamba","casos":168},{"nombre":"angaraes","casos":127},{"nombre":"castrovirreyna","casos":41},{"nombre":"churcampa","casos":70},{"nombre":"huancavelica","casos":797},{"nombre":"huaytara","casos":27},{"nombre":"tayacaja","casos":278}]},{"id":"PE-HUC","nombre":"huanuco","nombre_original":"Huánuco","casos":2177,"porcentaje":0.01778711026864501,"longitud":"-76.24","latitud":"-9.93","provincias":[{"nombre":"dos de mayo","casos":84},{"nombre":"huanuco","casos":1404},{"nombre":"leoncio prado","casos":689}]},{"id":"PE-ICA","nombre":"ica","nombre_original":"Ica","casos":4195,"porcentaje":0.034275116020654944,"longitud":"-75.729","latitud":"-14.07","provincias":[{"nombre":"chincha","casos":942},{"nombre":"ica","casos":2190},{"nombre":"nazca","casos":337},{"nombre":"palpa","casos":108},{"nombre":"pisco","casos":618}]},{"id":"PE-JUN","nombre":"junin","nombre_original":"Junín","casos":5847,"porcentaje":0.04777273024380679,"longitud":"-74.79","latitud":"-11.56","provincias":[{"nombre":"chanchamayo","casos":983},{"nombre":"chupaca","casos":112},{"nombre":"concepcion","casos":111},{"nombre":"huancayo","casos":2819},{"nombre":"jauja","casos":313},{"nombre":"junin","casos":147},{"nombre":"satipo","casos":621},{"nombre":"tarma","casos":515},{"nombre":"yauli","casos":226}]},{"id":"PE-LAL","nombre":"la libertad","nombre_original":"La Libertad","casos":7352,"porcentaje":0.06006928557422054,"longitud":"-78.28","latitud":"-7.97","provincias":[{"nombre":"ascope","casos":399},{"nombre":"bolivar","casos":40},{"nombre":"chepen","casos":299},{"nombre":"gran chimu","casos":56},{"nombre":"julcan","casos":72},{"nombre":"otuzco","casos":208},{"nombre":"pacasmayo","casos":355},{"nombre":"pataz","casos":93},{"nombre":"sanchez carrion","casos":217},{"nombre":"santiago de chuco","casos":132},{"nombre":"trujillo","casos":5275},{"nombre":"viru","casos":206}]},{"id":"PE-LAM","nombre":"lambayeque","nombre_original":"Lambayeque","casos":4152,"porcentaje":0.03392378586835741,"longitud":"-79.91","latitud":"-6.70","provincias":[{"nombre":"chiclayo","casos":3601},{"nombre":"ferreñafe","casos":151},{"nombre":"lambayeque","casos":400}]},{"id":"PE-LMA","nombre":"lima","nombre_original":"Lima Metropolitana","casos":47184,"porcentaje":0.3855153931629518,"longitud":"-76.95","latitud":"-11.9","provincias":[{"nombre":"barranca","casos":596},{"nombre":"cañete","casos":629},{"nombre":"huaral","casos":841},{"nombre":"huarochiri","casos":179},{"nombre":"huaura","casos":835},{"nombre":"lima","casos":44104}]},{"id":"PE-LOR","nombre":"loreto","nombre_original":"Loreto","casos":2557,"porcentaje":0.020891888358716255,"longitud":"-74.63","latitud":"-4.28","provincias":[{"nombre":"alto amazonas","casos":353},{"nombre":"datem del marañon","casos":83},{"nombre":"loreto","casos":149},{"nombre":"mariscal ramon castilla","casos":57},{"nombre":"maynas","casos":1833},{"nombre":"requena","casos":33},{"nombre":"ucayali","casos":49}]},{"id":"PE-MDD","nombre":"madre de dios","nombre_original":"Madre de Dios","casos":496,"porcentaje":0.004052552454408785,"longitud":"-70.53","latitud":"-12.05","provincias":[{"nombre":"tambopata","casos":496}]},{"id":"PE-MOQ","nombre":"moquegua","nombre_original":"Moquegua","casos":1210,"porcentaje":0.009886267076279496,"longitud":"-70.94","latitud":"-17.20","provincias":[{"nombre":"ilo","casos":407},{"nombre":"mariscal nieto","casos":803}]},{"id":"PE-PAS","nombre":"pasco","nombre_original":"Pasco","casos":1169,"porcentaje":0.009551277861298123,"longitud":"-75.53","latitud":"-10.48","provincias":[{"nombre":"daniel alcides carrion","casos":71},{"nombre":"oxapampa","casos":416},{"nombre":"pasco","casos":682}]},{"id":"PE-PIU","nombre":"piura","nombre_original":"Piura","casos":4967,"porcentaje":0.04058271782469442,"longitud":"-80.63","latitud":"-5.20","provincias":[{"nombre":"ayabaca","casos":116},{"nombre":"huancabamba","casos":261},{"nombre":"morropon","casos":521},{"nombre":"paita","casos":476},{"nombre":"piura","casos":2461},{"nombre":"sechura","casos":92},{"nombre":"sullana","casos":765},{"nombre":"talara","casos":275}]},{"id":"PE-PUN","nombre":"puno","nombre_original":"Puno","casos":3125,"porcentaje":0.02553271455650696,"longitud":"-70.04","latitud":"-15.84","provincias":[{"nombre":"azangaro","casos":209},{"nombre":"carabaya","casos":382},{"nombre":"chucuito","casos":117},{"nombre":"el collao","casos":143},{"nombre":"huancane","casos":117},{"nombre":"lampa","casos":141},{"nombre":"melgar","casos":207},{"nombre":"moho","casos":13},{"nombre":"puno","casos":773},{"nombre":"san antonio de putina","casos":22},{"nombre":"san roman","casos":784},{"nombre":"sandia","casos":153},{"nombre":"yunguyo","casos":64}]},{"id":"PE-SAM","nombre":"san martin","nombre_original":"San Martín","casos":3165,"porcentaje":0.02585953330283025,"longitud":"-76.73","latitud":"-7.23","provincias":[{"nombre":"bellavista","casos":145},{"nombre":"el dorado","casos":101},{"nombre":"huallaga","casos":40},{"nombre":"lamas","casos":128},{"nombre":"mariscal caceres","casos":113},{"nombre":"moyobamba","casos":682},{"nombre":"picota","casos":72},{"nombre":"rioja","casos":307},{"nombre":"san martin","casos":1241},{"nombre":"tocache","casos":336}]},{"id":"PE-TAC","nombre":"tacna","nombre_original":"Tacna","casos":1375,"porcentaje":0.011234394404863063,"longitud":"-70.25","latitud":"-18.01","provincias":[{"nombre":"tacna","casos":1375}]},{"id":"PE-TUM","nombre":"tumbes","nombre_original":"Tumbes","casos":986,"porcentaje":0.008056082096869076,"longitud":"-80.54","latitud":"-3.85","provincias":[{"nombre":"contralmirante villar","casos":55},{"nombre":"tumbes","casos":852},{"nombre":"zarumilla","casos":79}]},{"id":"PE-UCA","nombre":"ucayali","nombre_original":"Ucayalí","casos":1202,"porcentaje":0.009820903327014838,"longitud":"-73.40","latitud":"-9.93","provincias":[{"nombre":"atalaya","casos":117},{"nombre":"coronel portillo","casos":958},{"nombre":"padre abad","casos":127}]}],"genero":[{"nombre":"f","casos":84224,"porcentaje":0.6881495522583175},{"nombre":"m","casos":38168,"porcentaje":0.31185044774168247}],"edades":[{"nombre":"niños","casos":0,"porcentaje":0},{"nombre":"adolescentes","casos":0,"porcentaje":0},{"nombre":"jovenes","casos":15486,"porcentaje":0.12652787763906137},{"nombre":"adultos","casos":97931,"porcentaje":0.8001421661546506},{"nombre":"adultos mayores","casos":8864,"porcentaje":0.07242303418524086},{"nombre":"undefined","casos":111,"porcentaje":0.0009069220210471273}],"dosis":[{"nombre":"primera","casos":122392,"porcentaje":1}],"fabricantes":[{"nombre":"sinopharm","casos":122392,"porcentaje":1}],"grupo_riesgo":[{"nombre":"personal de salud","casos":121417,"porcentaje":0.9920337930583698},{"nombre":"trabajador ó personal de limpieza","casos":638,"porcentaje":0.005212759003856461},{"nombre":"personal de seguridad","casos":331,"porcentaje":0.0027044251258252173},{"nombre":"policia nacional del peru","casos":3,"porcentaje":0.000024511405974246682},{"nombre":"personal militar ó ff aa","casos":1,"porcentaje":0.000008170468658082228},{"nombre":"brigadistas","casos":2,"porcentaje":0.000016340937316164456}]}