{"ultima_fecha":20210215,"ultima_fecha_es":"15/02/2021","total":122301,"penultima_fecha":20210214,"penultima_fecha_es":"14/02/2021","penultimo_total":110699,"diferencia_total":11602,"departamentos":[{"id":"PE-AMA","nombre":"amazonas","nombre_original":"Amazonas","casos":1125,"porcentaje":0.009198616528074178,"longitud":"-77.85","latitud":"-6.22","provincias":[{"nombre":"bagua","casos":290},{"nombre":"bongara","casos":70},{"nombre":"chachapoyas","casos":446},{"nombre":"condorcanqui","casos":68},{"nombre":"rodriguez de mendoza","casos":54},{"nombre":"utcubamba","casos":197}]},{"id":"PE-ANC","nombre":"ancash","nombre_original":"Áncash","casos":3095,"porcentaje":0.025306416137235183,"longitud":"-77.93","latitud":"-9.56","provincias":[{"nombre":"asuncion","casos":31},{"nombre":"bolognesi","casos":24},{"nombre":"carhuaz","casos":88},{"nombre":"carlos fermin fitzcarrald","casos":9},{"nombre":"casma","casos":167},{"nombre":"huaraz","casos":692},{"nombre":"huari","casos":112},{"nombre":"huarmey","casos":107},{"nombre":"huaylas","casos":152},{"nombre":"mariscal luzuriaga","casos":30},{"nombre":"pomabamba","casos":124},{"nombre":"recuay","casos":60},{"nombre":"santa","casos":1330},{"nombre":"sihuas","casos":61},{"nombre":"yungay","casos":108}]},{"id":"PE-APU","nombre":"apurimac","nombre_original":"Apurímac","casos":2794,"porcentaje":0.02284527518172378,"longitud":"-72.94","latitud":"-14.05","provincias":[{"nombre":"abancay","casos":1046},{"nombre":"andahuaylas","casos":1087},{"nombre":"antabamba","casos":42},{"nombre":"aymaraes","casos":84},{"nombre":"chincheros","casos":244},{"nombre":"cotabambas","casos":201},{"nombre":"grau","casos":90}]},{"id":"PE-ARE","nombre":"arequipa","nombre_original":"Arequipa","casos":6293,"porcentaje":0.05145501672104071,"longitud":"-71.54","latitud":"-16.40","provincias":[{"nombre":"arequipa","casos":5349},{"nombre":"camana","casos":281},{"nombre":"castilla","casos":157},{"nombre":"caylloma","casos":307},{"nombre":"condesuyos","casos":28},{"nombre":"islay","casos":132},{"nombre":"la union","casos":39}]},{"id":"PE-AYA","nombre":"ayacucho","nombre_original":"Ayacucho","casos":2899,"porcentaje":0.023703812724344037,"longitud":"-74.22","latitud":"-13.16","provincias":[{"nombre":"cangallo","casos":193},{"nombre":"huamanga","casos":1389},{"nombre":"huanca sancos","casos":52},{"nombre":"huanta","casos":323},{"nombre":"la mar","casos":362},{"nombre":"lucanas","casos":202},{"nombre":"parinacochas","casos":171},{"nombre":"paucar del sara sara","casos":62},{"nombre":"sucre","casos":46},{"nombre":"victor fajardo","casos":45},{"nombre":"vilcas huaman","casos":54}]},{"id":"PE-CAJ","nombre":"cajamarca","nombre_original":"Cajamarca","casos":3449,"porcentaje":0.02820091413806919,"longitud":"-78.50","latitud":"-7.16","provincias":[{"nombre":"cajabamba","casos":163},{"nombre":"cajamarca","casos":1390},{"nombre":"celendin","casos":89},{"nombre":"chota","casos":259},{"nombre":"contumaza","casos":120},{"nombre":"cutervo","casos":243},{"nombre":"hualgayoc","casos":121},{"nombre":"jaen","casos":770},{"nombre":"san ignacio","casos":100},{"nombre":"san marcos","casos":64},{"nombre":"san miguel","casos":37},{"nombre":"san pablo","casos":42},{"nombre":"santa cruz","casos":51}]},{"id":"PE-CAL","nombre":"callao","nombre_original":"Callao","casos":6092,"porcentaje":0.049811530568024794,"longitud":"-77.12","latitud":"-12.06","provincias":[{"nombre":"callao","casos":6092}]},{"id":"PE-CUS","nombre":"cusco","nombre_original":"Cusco","casos":3933,"porcentaje":0.03215836338214732,"longitud":"-71.97","latitud":"-13.52","provincias":[{"nombre":"acomayo","casos":29},{"nombre":"anta","casos":64},{"nombre":"calca","casos":91},{"nombre":"canas","casos":55},{"nombre":"canchis","casos":279},{"nombre":"chumbivilcas","casos":80},{"nombre":"cusco","casos":2410},{"nombre":"espinar","casos":133},{"nombre":"la convencion","casos":512},{"nombre":"paruro","casos":18},{"nombre":"paucartambo","casos":45},{"nombre":"quispicanchi","casos":106},{"nombre":"urubamba","casos":111}]},{"id":"PE-HUV","nombre":"huancavelica","nombre_original":"Huancavelica","casos":1508,"porcentaje":0.012330234421631876,"longitud":"-74.97","latitud":"-12.78","provincias":[{"nombre":"acobamba","casos":168},{"nombre":"angaraes","casos":127},{"nombre":"castrovirreyna","casos":41},{"nombre":"churcampa","casos":70},{"nombre":"huancavelica","casos":797},{"nombre":"huaytara","casos":27},{"nombre":"tayacaja","casos":278}]},{"id":"PE-HUC","nombre":"huanuco","nombre_original":"Huánuco","casos":2177,"porcentaje":0.017800345050326655,"longitud":"-76.24","latitud":"-9.93","provincias":[{"nombre":"dos de mayo","casos":84},{"nombre":"huanuco","casos":1404},{"nombre":"leoncio prado","casos":689}]},{"id":"PE-ICA","nombre":"ica","nombre_original":"Ica","casos":4213,"porcentaje":0.03444779682913467,"longitud":"-75.729","latitud":"-14.07","provincias":[{"nombre":"chincha","casos":942},{"nombre":"ica","casos":2207},{"nombre":"nazca","casos":337},{"nombre":"palpa","casos":108},{"nombre":"pisco","casos":619}]},{"id":"PE-JUN","nombre":"junin","nombre_original":"Junín","casos":5847,"porcentaje":0.04780827630191086,"longitud":"-74.79","latitud":"-11.56","provincias":[{"nombre":"chanchamayo","casos":983},{"nombre":"chupaca","casos":112},{"nombre":"concepcion","casos":111},{"nombre":"huancayo","casos":2819},{"nombre":"jauja","casos":313},{"nombre":"junin","casos":147},{"nombre":"satipo","casos":621},{"nombre":"tarma","casos":515},{"nombre":"yauli","casos":226}]},{"id":"PE-LAL","nombre":"la libertad","nombre_original":"La Libertad","casos":7335,"porcentaje":0.05997497976304364,"longitud":"-78.28","latitud":"-7.97","provincias":[{"nombre":"ascope","casos":382},{"nombre":"bolivar","casos":40},{"nombre":"chepen","casos":299},{"nombre":"gran chimu","casos":56},{"nombre":"julcan","casos":72},{"nombre":"otuzco","casos":208},{"nombre":"pacasmayo","casos":355},{"nombre":"pataz","casos":93},{"nombre":"sanchez carrion","casos":217},{"nombre":"santiago de chuco","casos":132},{"nombre":"trujillo","casos":5275},{"nombre":"viru","casos":206}]},{"id":"PE-LAM","nombre":"lambayeque","nombre_original":"Lambayeque","casos":4185,"porcentaje":0.03421885348443594,"longitud":"-79.91","latitud":"-6.70","provincias":[{"nombre":"chiclayo","casos":3634},{"nombre":"ferreñafe","casos":151},{"nombre":"lambayeque","casos":400}]},{"id":"PE-LMA","nombre":"lima","nombre_original":"Lima Metropolitana","casos":47139,"porcentaje":0.3854342973483455,"longitud":"-76.95","latitud":"-11.9","provincias":[{"nombre":"barranca","casos":596},{"nombre":"cañete","casos":629},{"nombre":"huaral","casos":841},{"nombre":"huarochiri","casos":179},{"nombre":"huaura","casos":835},{"nombre":"lima","casos":44059}]},{"id":"PE-LOR","nombre":"loreto","nombre_original":"Loreto","casos":2557,"porcentaje":0.020907433299809486,"longitud":"-74.63","latitud":"-4.28","provincias":[{"nombre":"alto amazonas","casos":353},{"nombre":"datem del marañon","casos":83},{"nombre":"loreto","casos":149},{"nombre":"mariscal ramon castilla","casos":57},{"nombre":"maynas","casos":1833},{"nombre":"requena","casos":33},{"nombre":"ucayali","casos":49}]},{"id":"PE-MDD","nombre":"madre de dios","nombre_original":"Madre de Dios","casos":475,"porcentaje":0.0038838603118535415,"longitud":"-70.53","latitud":"-12.05","provincias":[{"nombre":"tambopata","casos":475}]},{"id":"PE-MOQ","nombre":"moquegua","nombre_original":"Moquegua","casos":1210,"porcentaje":0.009893623110195338,"longitud":"-70.94","latitud":"-17.20","provincias":[{"nombre":"ilo","casos":406},{"nombre":"mariscal nieto","casos":804}]},{"id":"PE-PAS","nombre":"pasco","nombre_original":"Pasco","casos":1169,"porcentaje":0.00955838464117219,"longitud":"-75.53","latitud":"-10.48","provincias":[{"nombre":"daniel alcides carrion","casos":71},{"nombre":"oxapampa","casos":416},{"nombre":"pasco","casos":682}]},{"id":"PE-PIU","nombre":"piura","nombre_original":"Piura","casos":4971,"porcentaje":0.040645620232050435,"longitud":"-80.63","latitud":"-5.20","provincias":[{"nombre":"ayabaca","casos":116},{"nombre":"huancabamba","casos":261},{"nombre":"morropon","casos":521},{"nombre":"paita","casos":476},{"nombre":"piura","casos":2461},{"nombre":"sechura","casos":92},{"nombre":"sullana","casos":765},{"nombre":"talara","casos":279}]},{"id":"PE-PUN","nombre":"puno","nombre_original":"Puno","casos":3103,"porcentaje":0.02537182852143482,"longitud":"-70.04","latitud":"-15.84","provincias":[{"nombre":"azangaro","casos":209},{"nombre":"carabaya","casos":382},{"nombre":"chucuito","casos":117},{"nombre":"el collao","casos":143},{"nombre":"huancane","casos":117},{"nombre":"lampa","casos":141},{"nombre":"melgar","casos":207},{"nombre":"moho","casos":13},{"nombre":"puno","casos":752},{"nombre":"san antonio de putina","casos":22},{"nombre":"san roman","casos":783},{"nombre":"sandia","casos":153},{"nombre":"yunguyo","casos":64}]},{"id":"PE-SAM","nombre":"san martin","nombre_original":"San Martín","casos":3165,"porcentaje":0.02587877449898202,"longitud":"-76.73","latitud":"-7.23","provincias":[{"nombre":"bellavista","casos":144},{"nombre":"el dorado","casos":101},{"nombre":"huallaga","casos":40},{"nombre":"lamas","casos":128},{"nombre":"mariscal caceres","casos":113},{"nombre":"moyobamba","casos":683},{"nombre":"picota","casos":72},{"nombre":"rioja","casos":307},{"nombre":"san martin","casos":1241},{"nombre":"tocache","casos":336}]},{"id":"PE-TAC","nombre":"tacna","nombre_original":"Tacna","casos":1378,"porcentaje":0.011267283178387748,"longitud":"-70.25","latitud":"-18.01","provincias":[{"nombre":"tacna","casos":1378}]},{"id":"PE-TUM","nombre":"tumbes","nombre_original":"Tumbes","casos":986,"porcentaje":0.008062076352605457,"longitud":"-80.54","latitud":"-3.85","provincias":[{"nombre":"contralmirante villar","casos":55},{"nombre":"tumbes","casos":852},{"nombre":"zarumilla","casos":79}]},{"id":"PE-UCA","nombre":"ucayali","nombre_original":"Ucayalí","casos":1203,"porcentaje":0.009836387274020654,"longitud":"-73.40","latitud":"-9.93","provincias":[{"nombre":"atalaya","casos":117},{"nombre":"coronel portillo","casos":959},{"nombre":"padre abad","casos":127}]}],"genero":[{"nombre":"f","casos":84162,"porcentaje":0.688154634876248},{"nombre":"m","casos":38139,"porcentaje":0.31184536512375205}],"edades":[{"nombre":"niños","casos":0,"porcentaje":0},{"nombre":"adolescentes","casos":0,"porcentaje":0},{"nombre":"jovenes","casos":15470,"porcentaje":0.12649119794605113},{"nombre":"adultos","casos":97860,"porcentaje":0.8001569897220792},{"nombre":"adultos mayores","casos":8864,"porcentaje":0.07247692169319957},{"nombre":"undefined","casos":107,"porcentaje":0.0008748906386701663}],"dosis":[{"nombre":"primera","casos":122301,"porcentaje":1}],"fabricantes":[{"nombre":"sinopharm","casos":122301,"porcentaje":1}],"grupo_riesgo":[{"nombre":"personal de salud","casos":121234,"porcentaje":0.9912756232573732},{"nombre":"trabajador ó personal de limpieza","casos":639,"porcentaje":0.005224814187946133},{"nombre":"personal de seguridad","casos":333,"porcentaje":0.002722790492309957},{"nombre":"policia nacional del peru","casos":3,"porcentaje":0.000024529644074864475},{"nombre":"estudiantes de ciencias de la salud","casos":90,"porcentaje":0.0007358893222459342},{"nombre":"brigadistas","casos":2,"porcentaje":0.000016353096049909648}]}