{"ultima_fecha":20210219,"ultima_fecha_es":"19/02/2021","total":171526,"penultima_fecha":20210217,"penultima_fecha_es":"17/02/2021","penultimo_total":133755,"diferencia_total":37771,"departamentos":[{"id":"PE-AMA","nombre":"amazonas","nombre_original":"Amazonas","casos":1209,"porcentaje":0.007048494105849842,"longitud":"-77.85","latitud":"-6.22","provincias":[{"nombre":"bagua","casos":313},{"nombre":"bongara","casos":72},{"nombre":"chachapoyas","casos":466},{"nombre":"condorcanqui","casos":79},{"nombre":"rodriguez de mendoza","casos":66},{"nombre":"utcubamba","casos":213}]},{"id":"PE-ANC","nombre":"ancash","nombre_original":"Áncash","casos":3249,"porcentaje":0.01894173478073295,"longitud":"-77.93","latitud":"-9.56","provincias":[{"nombre":"asuncion","casos":34},{"nombre":"bolognesi","casos":24},{"nombre":"carhuaz","casos":91},{"nombre":"carlos fermin fitzcarrald","casos":9},{"nombre":"casma","casos":169},{"nombre":"huaraz","casos":696},{"nombre":"huari","casos":129},{"nombre":"huarmey","casos":109},{"nombre":"huaylas","casos":152},{"nombre":"mariscal luzuriaga","casos":30},{"nombre":"pomabamba","casos":124},{"nombre":"recuay","casos":63},{"nombre":"santa","casos":1424},{"nombre":"sihuas","casos":77},{"nombre":"yungay","casos":118}]},{"id":"PE-APU","nombre":"apurimac","nombre_original":"Apurímac","casos":2972,"porcentaje":0.01732681925772186,"longitud":"-72.94","latitud":"-14.05","provincias":[{"nombre":"abancay","casos":1184},{"nombre":"andahuaylas","casos":1090},{"nombre":"antabamba","casos":42},{"nombre":"aymaraes","casos":91},{"nombre":"chincheros","casos":258},{"nombre":"cotabambas","casos":216},{"nombre":"grau","casos":91}]},{"id":"PE-ARE","nombre":"arequipa","nombre_original":"Arequipa","casos":7798,"porcentaje":0.04546249548173455,"longitud":"-71.54","latitud":"-16.40","provincias":[{"nombre":"arequipa","casos":6170},{"nombre":"camana","casos":528},{"nombre":"caraveli","casos":74},{"nombre":"castilla","casos":215},{"nombre":"caylloma","casos":431},{"nombre":"condesuyos","casos":77},{"nombre":"islay","casos":264},{"nombre":"la union","casos":39}]},{"id":"PE-AYA","nombre":"ayacucho","nombre_original":"Ayacucho","casos":5376,"porcentaje":0.03134218719028019,"longitud":"-74.22","latitud":"-13.16","provincias":[{"nombre":"cangallo","casos":257},{"nombre":"huamanga","casos":2772},{"nombre":"huanca sancos","casos":62},{"nombre":"huanta","casos":619},{"nombre":"la mar","casos":594},{"nombre":"lucanas","casos":424},{"nombre":"parinacochas","casos":271},{"nombre":"paucar del sara sara","casos":107},{"nombre":"sucre","casos":78},{"nombre":"victor fajardo","casos":95},{"nombre":"vilcas huaman","casos":97}]},{"id":"PE-CAJ","nombre":"cajamarca","nombre_original":"Cajamarca","casos":3804,"porcentaje":0.022177395846693794,"longitud":"-78.50","latitud":"-7.16","provincias":[{"nombre":"cajabamba","casos":163},{"nombre":"cajamarca","casos":1700},{"nombre":"celendin","casos":89},{"nombre":"chota","casos":265},{"nombre":"contumaza","casos":121},{"nombre":"cutervo","casos":251},{"nombre":"hualgayoc","casos":121},{"nombre":"jaen","casos":775},{"nombre":"san ignacio","casos":101},{"nombre":"san marcos","casos":70},{"nombre":"san miguel","casos":45},{"nombre":"san pablo","casos":42},{"nombre":"santa cruz","casos":61}]},{"id":"PE-CAL","nombre":"callao","nombre_original":"Callao","casos":9512,"porcentaje":0.05545514965661182,"longitud":"-77.12","latitud":"-12.06","provincias":[{"nombre":"callao","casos":9512}]},{"id":"PE-CUS","nombre":"cusco","nombre_original":"Cusco","casos":6461,"porcentaje":0.03766775882373518,"longitud":"-71.97","latitud":"-13.52","provincias":[{"nombre":"acomayo","casos":52},{"nombre":"anta","casos":73},{"nombre":"calca","casos":137},{"nombre":"canas","casos":75},{"nombre":"canchis","casos":403},{"nombre":"chumbivilcas","casos":140},{"nombre":"cusco","casos":4228},{"nombre":"espinar","casos":229},{"nombre":"la convencion","casos":748},{"nombre":"paruro","casos":24},{"nombre":"paucartambo","casos":62},{"nombre":"quispicanchi","casos":161},{"nombre":"urubamba","casos":129}]},{"id":"PE-HUV","nombre":"huancavelica","nombre_original":"Huancavelica","casos":3073,"porcentaje":0.017915651271527347,"longitud":"-74.97","latitud":"-12.78","provincias":[{"nombre":"acobamba","casos":269},{"nombre":"angaraes","casos":352},{"nombre":"castrovirreyna","casos":161},{"nombre":"churcampa","casos":138},{"nombre":"huancavelica","casos":1447},{"nombre":"huaytara","casos":108},{"nombre":"tayacaja","casos":598}]},{"id":"PE-HUC","nombre":"huanuco","nombre_original":"Huánuco","casos":2185,"porcentaje":0.012738593565989996,"longitud":"-76.24","latitud":"-9.93","provincias":[{"nombre":"dos de mayo","casos":84},{"nombre":"huanuco","casos":1412},{"nombre":"leoncio prado","casos":689}]},{"id":"PE-ICA","nombre":"ica","nombre_original":"Ica","casos":6764,"porcentaje":0.03943425486515164,"longitud":"-75.729","latitud":"-14.07","provincias":[{"nombre":"chincha","casos":1274},{"nombre":"ica","casos":3860},{"nombre":"nazca","casos":601},{"nombre":"palpa","casos":160},{"nombre":"pisco","casos":869}]},{"id":"PE-JUN","nombre":"junin","nombre_original":"Junín","casos":10295,"porcentaje":0.06002005526858902,"longitud":"-74.79","latitud":"-11.56","provincias":[{"nombre":"chanchamayo","casos":1466},{"nombre":"chupaca","casos":265},{"nombre":"concepcion","casos":266},{"nombre":"huancayo","casos":4919},{"nombre":"jauja","casos":792},{"nombre":"junin","casos":324},{"nombre":"satipo","casos":966},{"nombre":"tarma","casos":901},{"nombre":"yauli","casos":396}]},{"id":"PE-LAL","nombre":"la libertad","nombre_original":"La Libertad","casos":7379,"porcentaje":0.04301971712743258,"longitud":"-78.28","latitud":"-7.97","provincias":[{"nombre":"ascope","casos":403},{"nombre":"bolivar","casos":40},{"nombre":"chepen","casos":299},{"nombre":"gran chimu","casos":56},{"nombre":"julcan","casos":72},{"nombre":"otuzco","casos":231},{"nombre":"pacasmayo","casos":355},{"nombre":"pataz","casos":93},{"nombre":"sanchez carrion","casos":217},{"nombre":"santiago de chuco","casos":132},{"nombre":"trujillo","casos":5275},{"nombre":"viru","casos":206}]},{"id":"PE-LAM","nombre":"lambayeque","nombre_original":"Lambayeque","casos":6530,"porcentaje":0.03807003019950328,"longitud":"-79.91","latitud":"-6.70","provincias":[{"nombre":"chiclayo","casos":5288},{"nombre":"ferreñafe","casos":356},{"nombre":"lambayeque","casos":886}]},{"id":"PE-LMA","nombre":"lima","nombre_original":"Lima Metropolitana","casos":65160,"porcentaje":0.37988409920361926,"longitud":"-76.95","latitud":"-11.9","provincias":[{"nombre":"barranca","casos":623},{"nombre":"cañete","casos":678},{"nombre":"huaral","casos":873},{"nombre":"huarochiri","casos":179},{"nombre":"huaura","casos":927},{"nombre":"lima","casos":61880}]},{"id":"PE-LOR","nombre":"loreto","nombre_original":"Loreto","casos":3215,"porcentaje":0.018743514102818232,"longitud":"-74.63","latitud":"-4.28","provincias":[{"nombre":"alto amazonas","casos":483},{"nombre":"datem del marañon","casos":115},{"nombre":"loreto","casos":164},{"nombre":"mariscal ramon castilla","casos":57},{"nombre":"maynas","casos":2199},{"nombre":"requena","casos":56},{"nombre":"ucayali","casos":141}]},{"id":"PE-MDD","nombre":"madre de dios","nombre_original":"Madre de Dios","casos":496,"porcentaje":0.0028916898895794225,"longitud":"-70.53","latitud":"-12.05","provincias":[{"nombre":"tambopata","casos":496}]},{"id":"PE-MOQ","nombre":"moquegua","nombre_original":"Moquegua","casos":1479,"porcentaje":0.008622599489290254,"longitud":"-70.94","latitud":"-17.20","provincias":[{"nombre":"general sanchez cerro","casos":133},{"nombre":"ilo","casos":425},{"nombre":"mariscal nieto","casos":921}]},{"id":"PE-PAS","nombre":"pasco","nombre_original":"Pasco","casos":1267,"porcentaje":0.007386635262292597,"longitud":"-75.53","latitud":"-10.48","provincias":[{"nombre":"daniel alcides carrion","casos":71},{"nombre":"oxapampa","casos":441},{"nombre":"pasco","casos":755}]},{"id":"PE-PIU","nombre":"piura","nombre_original":"Piura","casos":5468,"porcentaje":0.031878549024637666,"longitud":"-80.63","latitud":"-5.20","provincias":[{"nombre":"ayabaca","casos":125},{"nombre":"huancabamba","casos":269},{"nombre":"morropon","casos":548},{"nombre":"paita","casos":476},{"nombre":"piura","casos":2833},{"nombre":"sechura","casos":92},{"nombre":"sullana","casos":841},{"nombre":"talara","casos":284}]},{"id":"PE-PUN","nombre":"puno","nombre_original":"Puno","casos":4667,"porcentaje":0.027208703053764445,"longitud":"-70.04","latitud":"-15.84","provincias":[{"nombre":"azangaro","casos":327},{"nombre":"carabaya","casos":449},{"nombre":"chucuito","casos":234},{"nombre":"el collao","casos":158},{"nombre":"huancane","casos":208},{"nombre":"lampa","casos":170},{"nombre":"melgar","casos":387},{"nombre":"moho","casos":18},{"nombre":"puno","casos":937},{"nombre":"san antonio de putina","casos":26},{"nombre":"san roman","casos":1408},{"nombre":"sandia","casos":215},{"nombre":"yunguyo","casos":130}]},{"id":"PE-SAM","nombre":"san martin","nombre_original":"San Martín","casos":6974,"porcentaje":0.04065855905227196,"longitud":"-76.73","latitud":"-7.23","provincias":[{"nombre":"bellavista","casos":295},{"nombre":"el dorado","casos":249},{"nombre":"huallaga","casos":212},{"nombre":"lamas","casos":414},{"nombre":"mariscal caceres","casos":312},{"nombre":"moyobamba","casos":1568},{"nombre":"picota","casos":199},{"nombre":"rioja","casos":714},{"nombre":"san martin","casos":2399},{"nombre":"tocache","casos":612}]},{"id":"PE-TAC","nombre":"tacna","nombre_original":"Tacna","casos":2568,"porcentaje":0.014971491202499913,"longitud":"-70.25","latitud":"-18.01","provincias":[{"nombre":"tacna","casos":2551},{"nombre":"tarata","casos":17}]},{"id":"PE-TUM","nombre":"tumbes","nombre_original":"Tumbes","casos":1872,"porcentaje":0.010913797325186853,"longitud":"-80.54","latitud":"-3.85","provincias":[{"nombre":"contralmirante villar","casos":110},{"nombre":"tumbes","casos":1541},{"nombre":"zarumilla","casos":221}]},{"id":"PE-UCA","nombre":"ucayali","nombre_original":"Ucayalí","casos":1753,"porcentaje":0.010220024952485338,"longitud":"-73.40","latitud":"-9.93","provincias":[{"nombre":"atalaya","casos":130},{"nombre":"coronel portillo","casos":1496},{"nombre":"padre abad","casos":127}]}],"genero":[{"nombre":"m","casos":55807,"porcentaje":0.3253559227172557},{"nombre":"f","casos":115719,"porcentaje":0.6746440772827443}],"edades":[{"nombre":"niños","casos":0,"porcentaje":0},{"nombre":"adolescentes","casos":0,"porcentaje":0},{"nombre":"jovenes","casos":24315,"porcentaje":0.14175693480871704},{"nombre":"adultos","casos":132372,"porcentaje":0.7717313993213857},{"nombre":"adultos mayores","casos":14690,"porcentaje":0.08564299289903571},{"nombre":"undefined","casos":149,"porcentaje":0.0008686729708615603}],"dosis":[{"nombre":"primera","casos":171526,"porcentaje":1}],"fabricantes":[{"nombre":"sinopharm","casos":171526,"porcentaje":1}],"grupo_riesgo":[{"nombre":"personal de salud","casos":169123,"porcentaje":0.9859904620873804},{"nombre":"trabajador ó personal de limpieza","casos":1471,"porcentaje":0.008575959329780908},{"nombre":"personal de seguridad","casos":776,"porcentaje":0.0045240954724065155},{"nombre":"policia nacional del peru","casos":138,"porcentaje":0.0008045427515362102},{"nombre":"personal militar ó ff aa","casos":16,"porcentaje":0.00009328031901869105},{"nombre":"brigadistas","casos":2,"porcentaje":0.000011660039877336381}]}