{"ultima_fecha":20200507,"ultima_fecha_es":"07/05/2020","total":71038,"penultima_fecha":20200506,"penultima_fecha_es":"06/05/2020","penultimo_total":67420,"diferencia_total":3618,"departamentos":[{"id":"PE-AMA","nombre":"amazonas","nombre_original":"Amazonas","casos":360,"porcentaje":0.005067710239590078,"longitud":"-77.85","latitud":"-6.22","provincias":[{"nombre":"bagua","casos":76},{"nombre":"bongara","casos":18},{"nombre":"chachapoyas","casos":181},{"nombre":"en investigación","casos":4},{"nombre":"luya","casos":3},{"nombre":"rodriguez de mendoza","casos":2},{"nombre":"utcubamba","casos":76}]},{"id":"PE-ANC","nombre":"ancash","nombre_original":"Áncash","casos":1553,"porcentaje":0.02186153889467609,"longitud":"-77.93","latitud":"-9.56","provincias":[{"nombre":"asuncion","casos":1},{"nombre":"bolognesi","casos":4},{"nombre":"carhuaz","casos":18},{"nombre":"casma","casos":45},{"nombre":"en investigación","casos":8},{"nombre":"huaraz","casos":252},{"nombre":"huari","casos":42},{"nombre":"huarmey","casos":13},{"nombre":"huaylas","casos":18},{"nombre":"mariscal luzuriaga","casos":7},{"nombre":"pallasca","casos":2},{"nombre":"pomabamba","casos":21},{"nombre":"recuay","casos":4},{"nombre":"santa","casos":1109},{"nombre":"sihuas","casos":6},{"nombre":"yungay","casos":3}]},{"id":"PE-APU","nombre":"apurimac","nombre_original":"Apurímac","casos":171,"porcentaje":0.002407162363805287,"longitud":"-72.94","latitud":"-14.05","provincias":[{"nombre":"abancay","casos":116},{"nombre":"andahuaylas","casos":48},{"nombre":"aymaraes","casos":1},{"nombre":"chincheros","casos":2},{"nombre":"cotabambas","casos":1},{"nombre":"en investigación","casos":1},{"nombre":"grau","casos":2}]},{"id":"PE-ARE","nombre":"arequipa","nombre_original":"Arequipa","casos":1129,"porcentaje":0.015892902390269997,"longitud":"-71.54","latitud":"-16.40","provincias":[{"nombre":"arequipa","casos":1016},{"nombre":"camana","casos":17},{"nombre":"caraveli","casos":15},{"nombre":"castilla","casos":4},{"nombre":"caylloma","casos":27},{"nombre":"en investigación","casos":2},{"nombre":"islay","casos":48}]},{"id":"PE-AYA","nombre":"ayacucho","nombre_original":"Ayacucho","casos":286,"porcentaje":0.004026014245896562,"longitud":"-74.22","latitud":"-13.16","provincias":[{"nombre":"cangallo","casos":2},{"nombre":"huamanga","casos":219},{"nombre":"huanta","casos":15},{"nombre":"la mar","casos":2},{"nombre":"lucanas","casos":23},{"nombre":"parinacochas","casos":16},{"nombre":"victor fajardo","casos":6},{"nombre":"vilcas huaman","casos":3}]},{"id":"PE-CAJ","nombre":"cajamarca","nombre_original":"Cajamarca","casos":384,"porcentaje":0.005405557588896084,"longitud":"-78.50","latitud":"-7.16","provincias":[{"nombre":"cajabamba","casos":2},{"nombre":"cajamarca","casos":129},{"nombre":"celendin","casos":21},{"nombre":"chota","casos":31},{"nombre":"contumaza","casos":6},{"nombre":"cutervo","casos":3},{"nombre":"en investigación","casos":4},{"nombre":"hualgayoc","casos":41},{"nombre":"jaen","casos":69},{"nombre":"san ignacio","casos":4},{"nombre":"san marcos","casos":1},{"nombre":"san miguel","casos":6},{"nombre":"san pablo","casos":4},{"nombre":"santa cruz","casos":63}]},{"id":"PE-CAL","nombre":"callao","nombre_original":"Callao","casos":5751,"porcentaje":0.08095667107745151,"longitud":"-77.12","latitud":"-12.06","provincias":[{"nombre":"callao","casos":5541},{"nombre":"en investigación","casos":210}]},{"id":"PE-CUS","nombre":"cusco","nombre_original":"Cusco","casos":471,"porcentaje":0.006630254230130353,"longitud":"-71.97","latitud":"-13.52","provincias":[{"nombre":"anta","casos":6},{"nombre":"calca","casos":3},{"nombre":"canas","casos":3},{"nombre":"canchis","casos":16},{"nombre":"chumbivilcas","casos":8},{"nombre":"cusco","casos":383},{"nombre":"en investigación","casos":3},{"nombre":"espinar","casos":12},{"nombre":"la convencion","casos":10},{"nombre":"paruro","casos":7},{"nombre":"paucartambo","casos":1},{"nombre":"quispicanchi","casos":6},{"nombre":"urubamba","casos":13}]},{"id":"PE-HUV","nombre":"huancavelica","nombre_original":"Huancavelica","casos":346,"porcentaje":0.004870632619161576,"longitud":"-74.97","latitud":"-12.78","provincias":[{"nombre":"acobamba","casos":82},{"nombre":"angaraes","casos":69},{"nombre":"castrovirreyna","casos":1},{"nombre":"churcampa","casos":8},{"nombre":"en investigación","casos":1},{"nombre":"huancavelica","casos":149},{"nombre":"huaytara","casos":22},{"nombre":"tayacaja","casos":14}]},{"id":"PE-HUC","nombre":"huanuco","nombre_original":"Huánuco","casos":369,"porcentaje":0.00519440299557983,"longitud":"-76.24","latitud":"-9.93","provincias":[{"nombre":"ambo","casos":10},{"nombre":"dos de mayo","casos":5},{"nombre":"en investigación","casos":38},{"nombre":"huamalies","casos":69},{"nombre":"huanuco","casos":196},{"nombre":"lauricocha","casos":7},{"nombre":"leoncio prado","casos":29},{"nombre":"pachitea","casos":9},{"nombre":"puerto inca","casos":5},{"nombre":"yarowilca","casos":1}]},{"id":"PE-ICA","nombre":"ica","nombre_original":"Ica","casos":1095,"porcentaje":0.015414285312086488,"longitud":"-75.729","latitud":"-14.07","provincias":[{"nombre":"chincha","casos":261},{"nombre":"en investigación","casos":7},{"nombre":"ica","casos":478},{"nombre":"nazca","casos":98},{"nombre":"palpa","casos":121},{"nombre":"pisco","casos":130}]},{"id":"PE-JUN","nombre":"junin","nombre_original":"Junín","casos":877,"porcentaje":0.012345505222556941,"longitud":"-74.79","latitud":"-11.56","provincias":[{"nombre":"chanchamayo","casos":106},{"nombre":"chupaca","casos":90},{"nombre":"concepcion","casos":18},{"nombre":"en investigación","casos":8},{"nombre":"huancayo","casos":399},{"nombre":"jauja","casos":31},{"nombre":"junin","casos":43},{"nombre":"satipo","casos":63},{"nombre":"tarma","casos":70},{"nombre":"yauli","casos":49}]},{"id":"PE-LAL","nombre":"la libertad","nombre_original":"La Libertad","casos":1762,"porcentaje":0.024803626228215886,"longitud":"-78.28","latitud":"-7.97","provincias":[{"nombre":"ascope","casos":50},{"nombre":"chepen","casos":215},{"nombre":"en investigación","casos":17},{"nombre":"gran chimu","casos":3},{"nombre":"pacasmayo","casos":36},{"nombre":"pataz","casos":3},{"nombre":"sanchez carrion","casos":7},{"nombre":"trujillo","casos":1313},{"nombre":"viru","casos":118}]},{"id":"PE-LAM","nombre":"lambayeque","nombre_original":"Lambayeque","casos":4573,"porcentaje":0.06437399701568175,"longitud":"-79.91","latitud":"-6.70","provincias":[{"nombre":"chiclayo","casos":3217},{"nombre":"en investigación","casos":10},{"nombre":"ferreñafe","casos":650},{"nombre":"lambayeque","casos":696}]},{"id":"PE-LMA","nombre":"lima","nombre_original":"Lima Metropolitana","casos":41138,"porcentaje":0.5790985106562685,"longitud":"-76.95","latitud":"-11.9","provincias":[{"nombre":"en investigación","casos":8},{"nombre":"lima","casos":41130}]},{"id":"PE-LIM","nombre":"lima region","nombre_original":"Lima Región","casos":1909,"porcentaje":0.026872941242715165,"longitud":"-76.64","latitud":"-11.92","provincias":[{"nombre":"barranca","casos":70},{"nombre":"cajatambo","casos":1},{"nombre":"canta","casos":16},{"nombre":"cañete","casos":543},{"nombre":"en investigación","casos":563},{"nombre":"huaral","casos":280},{"nombre":"huarochiri","casos":88},{"nombre":"huaura","casos":332},{"nombre":"oyon","casos":8},{"nombre":"yauyos","casos":8}]},{"id":"PE-LOR","nombre":"loreto","nombre_original":"Loreto","casos":2237,"porcentaje":0.03149018834989724,"longitud":"-74.63","latitud":"-4.28","provincias":[{"nombre":"alto amazonas","casos":96},{"nombre":"datem del marañon","casos":11},{"nombre":"en investigación","casos":5},{"nombre":"loreto","casos":54},{"nombre":"mariscal ramon castilla","casos":59},{"nombre":"maynas","casos":1983},{"nombre":"putumayo","casos":1},{"nombre":"requena","casos":10},{"nombre":"ucayali","casos":18}]},{"id":"PE-MDD","nombre":"madre de dios","nombre_original":"Madre de Dios","casos":154,"porcentaje":0.0021678538247135335,"longitud":"-70.53","latitud":"-12.05","provincias":[{"nombre":"tahuamanu","casos":6},{"nombre":"tambopata","casos":148}]},{"id":"PE-MOQ","nombre":"moquegua","nombre_original":"Moquegua","casos":207,"porcentaje":0.002913933387764295,"longitud":"-70.94","latitud":"-17.20","provincias":[{"nombre":"general sanchez cerro","casos":2},{"nombre":"ilo","casos":114},{"nombre":"mariscal nieto","casos":91}]},{"id":"PE-PAS","nombre":"pasco","nombre_original":"Pasco","casos":246,"porcentaje":0.0034629353303865535,"longitud":"-75.53","latitud":"-10.48","provincias":[{"nombre":"daniel alcides carrion","casos":17},{"nombre":"en investigación","casos":15},{"nombre":"oxapampa","casos":66},{"nombre":"pasco","casos":148}]},{"id":"PE-PIU","nombre":"piura","nombre_original":"Piura","casos":3219,"porcentaje":0.04531377572566795,"longitud":"-80.63","latitud":"-5.20","provincias":[{"nombre":"ayabaca","casos":30},{"nombre":"en investigación","casos":7},{"nombre":"huancabamba","casos":4},{"nombre":"morropon","casos":108},{"nombre":"paita","casos":250},{"nombre":"piura","casos":2092},{"nombre":"sechura","casos":55},{"nombre":"sullana","casos":558},{"nombre":"talara","casos":115}]},{"id":"PE-PUN","nombre":"puno","nombre_original":"Puno","casos":293,"porcentaje":0.004124553056110814,"longitud":"-70.04","latitud":"-15.84","provincias":[{"nombre":"azangaro","casos":8},{"nombre":"carabaya","casos":1},{"nombre":"chucuito","casos":23},{"nombre":"el collao","casos":11},{"nombre":"en investigación","casos":3},{"nombre":"huancane","casos":14},{"nombre":"melgar","casos":3},{"nombre":"puno","casos":150},{"nombre":"san antonio de putina","casos":2},{"nombre":"san roman","casos":53},{"nombre":"sandia","casos":10},{"nombre":"yunguyo","casos":15}]},{"id":"PE-SAM","nombre":"san martin","nombre_original":"San Martín","casos":460,"porcentaje":0.006475407528365101,"longitud":"-76.73","latitud":"-7.23","provincias":[{"nombre":"bellavista","casos":41},{"nombre":"el dorado","casos":3},{"nombre":"en investigación","casos":3},{"nombre":"huallaga","casos":3},{"nombre":"lamas","casos":7},{"nombre":"mariscal caceres","casos":20},{"nombre":"moyobamba","casos":119},{"nombre":"picota","casos":59},{"nombre":"rioja","casos":40},{"nombre":"san martin","casos":142},{"nombre":"tocache","casos":23}]},{"id":"PE-TAC","nombre":"tacna","nombre_original":"Tacna","casos":210,"porcentaje":0.002956164306427546,"longitud":"-70.25","latitud":"-18.01","provincias":[{"nombre":"en investigación","casos":2},{"nombre":"jorge basadre","casos":1},{"nombre":"tacna","casos":206},{"nombre":"tarata","casos":1}]},{"id":"PE-TUM","nombre":"tumbes","nombre_original":"Tumbes","casos":559,"porcentaje":0.007869027844252372,"longitud":"-80.54","latitud":"-3.85","provincias":[{"nombre":"contralmirante villar","casos":31},{"nombre":"en investigación","casos":7},{"nombre":"tumbes","casos":446},{"nombre":"zarumilla","casos":75}]},{"id":"PE-UCA","nombre":"ucayali","nombre_original":"Ucayalí","casos":1279,"porcentaje":0.01800444832343253,"longitud":"-73.40","latitud":"-9.93","provincias":[{"nombre":"coronel portillo","casos":1257},{"nombre":"en investigación","casos":4},{"nombre":"padre abad","casos":18}]}],"genero":[{"nombre":"m","casos":42937,"porcentaje":0.6044229848813312},{"nombre":"f","casos":28101,"porcentaje":0.3955770151186689}],"edades":[{"nombre":"niños","casos":2056,"porcentaje":0.028942256257214447},{"nombre":"adolescentes","casos":1210,"porcentaje":0.017033137194177764},{"nombre":"jovenes","casos":12698,"porcentaje":0.17874940172865228},{"nombre":"adultos","casos":42243,"porcentaje":0.5946535656972325},{"nombre":"adultos mayores","casos":12831,"porcentaje":0.18062163912272305},{"nombre":"undefined","casos":0,"porcentaje":0}],"metododx":[{"nombre":"pr","casos":50791,"porcentaje":0.7149835299417213},{"nombre":"pcr","casos":20247,"porcentaje":0.2850164700582787}]}