{"ultima_fecha":20200509,"ultima_fecha_es":"09/05/2020","total":76817,"penultima_fecha":20200508,"penultima_fecha_es":"08/05/2020","penultimo_total":74338,"diferencia_total":2479,"departamentos":[{"id":"PE-AMA","nombre":"amazonas","nombre_original":"Amazonas","casos":384,"porcentaje":0.004998893474100785,"longitud":"-77.85","latitud":"-6.22","provincias":[{"nombre":"bagua","casos":84},{"nombre":"bongara","casos":18},{"nombre":"chachapoyas","casos":182},{"nombre":"condorcanqui","casos":1},{"nombre":"en investigación","casos":4},{"nombre":"luya","casos":4},{"nombre":"rodriguez de mendoza","casos":2},{"nombre":"utcubamba","casos":89}]},{"id":"PE-ANC","nombre":"ancash","nombre_original":"Áncash","casos":1676,"porcentaje":0.02181808714216905,"longitud":"-77.93","latitud":"-9.56","provincias":[{"nombre":"asuncion","casos":1},{"nombre":"bolognesi","casos":4},{"nombre":"carhuaz","casos":18},{"nombre":"casma","casos":49},{"nombre":"en investigación","casos":8},{"nombre":"huaraz","casos":267},{"nombre":"huari","casos":45},{"nombre":"huarmey","casos":13},{"nombre":"huaylas","casos":18},{"nombre":"mariscal luzuriaga","casos":7},{"nombre":"pallasca","casos":2},{"nombre":"pomabamba","casos":21},{"nombre":"recuay","casos":4},{"nombre":"santa","casos":1209},{"nombre":"sihuas","casos":6},{"nombre":"yungay","casos":4}]},{"id":"PE-APU","nombre":"apurimac","nombre_original":"Apurímac","casos":172,"porcentaje":0.0022390877019409765,"longitud":"-72.94","latitud":"-14.05","provincias":[{"nombre":"abancay","casos":117},{"nombre":"andahuaylas","casos":48},{"nombre":"aymaraes","casos":1},{"nombre":"chincheros","casos":2},{"nombre":"cotabambas","casos":1},{"nombre":"en investigación","casos":1},{"nombre":"grau","casos":2}]},{"id":"PE-ARE","nombre":"arequipa","nombre_original":"Arequipa","casos":1227,"porcentaje":0.015973026803962665,"longitud":"-71.54","latitud":"-16.40","provincias":[{"nombre":"arequipa","casos":1099},{"nombre":"camana","casos":17},{"nombre":"caraveli","casos":28},{"nombre":"castilla","casos":4},{"nombre":"caylloma","casos":27},{"nombre":"en investigación","casos":2},{"nombre":"islay","casos":50}]},{"id":"PE-AYA","nombre":"ayacucho","nombre_original":"Ayacucho","casos":322,"porcentaje":0.004191780465261596,"longitud":"-74.22","latitud":"-13.16","provincias":[{"nombre":"cangallo","casos":2},{"nombre":"huamanga","casos":254},{"nombre":"huanta","casos":15},{"nombre":"la mar","casos":3},{"nombre":"lucanas","casos":23},{"nombre":"parinacochas","casos":16},{"nombre":"victor fajardo","casos":6},{"nombre":"vilcas huaman","casos":3}]},{"id":"PE-CAJ","nombre":"cajamarca","nombre_original":"Cajamarca","casos":402,"porcentaje":0.00523321660569926,"longitud":"-78.50","latitud":"-7.16","provincias":[{"nombre":"cajabamba","casos":2},{"nombre":"cajamarca","casos":133},{"nombre":"celendin","casos":21},{"nombre":"chota","casos":33},{"nombre":"contumaza","casos":6},{"nombre":"cutervo","casos":3},{"nombre":"en investigación","casos":4},{"nombre":"hualgayoc","casos":42},{"nombre":"jaen","casos":76},{"nombre":"san ignacio","casos":4},{"nombre":"san marcos","casos":1},{"nombre":"san miguel","casos":6},{"nombre":"san pablo","casos":5},{"nombre":"santa cruz","casos":66}]},{"id":"PE-CAL","nombre":"callao","nombre_original":"Callao","casos":6161,"porcentaje":0.08020360076545556,"longitud":"-77.12","latitud":"-12.06","provincias":[{"nombre":"callao","casos":5939},{"nombre":"en investigación","casos":222}]},{"id":"PE-CUS","nombre":"cusco","nombre_original":"Cusco","casos":531,"porcentaje":0.0069125323821549916,"longitud":"-71.97","latitud":"-13.52","provincias":[{"nombre":"anta","casos":6},{"nombre":"calca","casos":3},{"nombre":"canas","casos":3},{"nombre":"canchis","casos":16},{"nombre":"chumbivilcas","casos":8},{"nombre":"cusco","casos":431},{"nombre":"en investigación","casos":5},{"nombre":"espinar","casos":17},{"nombre":"la convencion","casos":15},{"nombre":"paruro","casos":7},{"nombre":"paucartambo","casos":1},{"nombre":"quispicanchi","casos":6},{"nombre":"urubamba","casos":13}]},{"id":"PE-HUV","nombre":"huancavelica","nombre_original":"Huancavelica","casos":364,"porcentaje":0.004738534438991369,"longitud":"-74.97","latitud":"-12.78","provincias":[{"nombre":"acobamba","casos":91},{"nombre":"angaraes","casos":69},{"nombre":"castrovirreyna","casos":1},{"nombre":"churcampa","casos":8},{"nombre":"en investigación","casos":1},{"nombre":"huancavelica","casos":157},{"nombre":"huaytara","casos":23},{"nombre":"tayacaja","casos":14}]},{"id":"PE-HUC","nombre":"huanuco","nombre_original":"Huánuco","casos":387,"porcentaje":0.005037947329367198,"longitud":"-76.24","latitud":"-9.93","provincias":[{"nombre":"ambo","casos":11},{"nombre":"dos de mayo","casos":5},{"nombre":"en investigación","casos":38},{"nombre":"huamalies","casos":70},{"nombre":"huanuco","casos":201},{"nombre":"lauricocha","casos":7},{"nombre":"leoncio prado","casos":40},{"nombre":"pachitea","casos":9},{"nombre":"puerto inca","casos":5},{"nombre":"yarowilca","casos":1}]},{"id":"PE-ICA","nombre":"ica","nombre_original":"Ica","casos":1236,"porcentaje":0.0160901883697619,"longitud":"-75.729","latitud":"-14.07","provincias":[{"nombre":"chincha","casos":316},{"nombre":"en investigación","casos":7},{"nombre":"ica","casos":513},{"nombre":"nazca","casos":104},{"nombre":"palpa","casos":149},{"nombre":"pisco","casos":147}]},{"id":"PE-JUN","nombre":"junin","nombre_original":"Junín","casos":954,"porcentaje":0.012419125974719138,"longitud":"-74.79","latitud":"-11.56","provincias":[{"nombre":"chanchamayo","casos":115},{"nombre":"chupaca","casos":97},{"nombre":"concepcion","casos":18},{"nombre":"en investigación","casos":8},{"nombre":"huancayo","casos":428},{"nombre":"jauja","casos":34},{"nombre":"junin","casos":59},{"nombre":"satipo","casos":66},{"nombre":"tarma","casos":74},{"nombre":"yauli","casos":55}]},{"id":"PE-LAL","nombre":"la libertad","nombre_original":"La Libertad","casos":1919,"porcentaje":0.024981449418748455,"longitud":"-78.28","latitud":"-7.97","provincias":[{"nombre":"ascope","casos":50},{"nombre":"chepen","casos":228},{"nombre":"en investigación","casos":18},{"nombre":"gran chimu","casos":3},{"nombre":"pacasmayo","casos":42},{"nombre":"pataz","casos":9},{"nombre":"sanchez carrion","casos":7},{"nombre":"trujillo","casos":1434},{"nombre":"viru","casos":128}]},{"id":"PE-LAM","nombre":"lambayeque","nombre_original":"Lambayeque","casos":4795,"porcentaje":0.062421078667482456,"longitud":"-79.91","latitud":"-6.70","provincias":[{"nombre":"chiclayo","casos":3357},{"nombre":"en investigación","casos":10},{"nombre":"ferreñafe","casos":679},{"nombre":"lambayeque","casos":749}]},{"id":"PE-LMA","nombre":"lima","nombre_original":"Lima Metropolitana","casos":44447,"porcentaje":0.5786089016754103,"longitud":"-76.95","latitud":"-11.9","provincias":[{"nombre":"en investigación","casos":9},{"nombre":"lima","casos":44438}]},{"id":"PE-LIM","nombre":"lima region","nombre_original":"Lima Región","casos":2025,"porcentaje":0.026361352304828358,"longitud":"-76.64","latitud":"-11.92","provincias":[{"nombre":"barranca","casos":75},{"nombre":"cajatambo","casos":1},{"nombre":"canta","casos":17},{"nombre":"cañete","casos":582},{"nombre":"en investigación","casos":577},{"nombre":"huaral","casos":309},{"nombre":"huarochiri","casos":99},{"nombre":"huaura","casos":348},{"nombre":"oyon","casos":8},{"nombre":"yauyos","casos":9}]},{"id":"PE-LOR","nombre":"loreto","nombre_original":"Loreto","casos":2468,"porcentaje":0.03212830493250192,"longitud":"-74.63","latitud":"-4.28","provincias":[{"nombre":"alto amazonas","casos":106},{"nombre":"datem del marañon","casos":11},{"nombre":"en investigación","casos":6},{"nombre":"loreto","casos":65},{"nombre":"mariscal ramon castilla","casos":62},{"nombre":"maynas","casos":2189},{"nombre":"putumayo","casos":1},{"nombre":"requena","casos":10},{"nombre":"ucayali","casos":18}]},{"id":"PE-MDD","nombre":"madre de dios","nombre_original":"Madre de Dios","casos":173,"porcentaje":0.0022521056536964476,"longitud":"-70.53","latitud":"-12.05","provincias":[{"nombre":"tahuamanu","casos":6},{"nombre":"tambopata","casos":167}]},{"id":"PE-MOQ","nombre":"moquegua","nombre_original":"Moquegua","casos":234,"porcentaje":0.003046200710780166,"longitud":"-70.94","latitud":"-17.20","provincias":[{"nombre":"general sanchez cerro","casos":2},{"nombre":"ilo","casos":124},{"nombre":"mariscal nieto","casos":108}]},{"id":"PE-PAS","nombre":"pasco","nombre_original":"Pasco","casos":257,"porcentaje":0.0033456136011559942,"longitud":"-75.53","latitud":"-10.48","provincias":[{"nombre":"daniel alcides carrion","casos":17},{"nombre":"en investigación","casos":19},{"nombre":"oxapampa","casos":66},{"nombre":"pasco","casos":155}]},{"id":"PE-PIU","nombre":"piura","nombre_original":"Piura","casos":3455,"porcentaje":0.0449770233151516,"longitud":"-80.63","latitud":"-5.20","provincias":[{"nombre":"ayabaca","casos":30},{"nombre":"en investigación","casos":7},{"nombre":"huancabamba","casos":4},{"nombre":"morropon","casos":126},{"nombre":"paita","casos":275},{"nombre":"piura","casos":2228},{"nombre":"sechura","casos":64},{"nombre":"sullana","casos":604},{"nombre":"talara","casos":117}]},{"id":"PE-PUN","nombre":"puno","nombre_original":"Puno","casos":302,"porcentaje":0.0039314214301521795,"longitud":"-70.04","latitud":"-15.84","provincias":[{"nombre":"azangaro","casos":9},{"nombre":"carabaya","casos":1},{"nombre":"chucuito","casos":25},{"nombre":"el collao","casos":11},{"nombre":"en investigación","casos":3},{"nombre":"huancane","casos":14},{"nombre":"lampa","casos":1},{"nombre":"melgar","casos":3},{"nombre":"puno","casos":151},{"nombre":"san antonio de putina","casos":2},{"nombre":"san roman","casos":57},{"nombre":"sandia","casos":10},{"nombre":"yunguyo","casos":15}]},{"id":"PE-SAM","nombre":"san martin","nombre_original":"San Martín","casos":538,"porcentaje":0.007003658044443287,"longitud":"-76.73","latitud":"-7.23","provincias":[{"nombre":"bellavista","casos":43},{"nombre":"el dorado","casos":3},{"nombre":"en investigación","casos":4},{"nombre":"huallaga","casos":3},{"nombre":"lamas","casos":10},{"nombre":"mariscal caceres","casos":23},{"nombre":"moyobamba","casos":155},{"nombre":"picota","casos":67},{"nombre":"rioja","casos":54},{"nombre":"san martin","casos":151},{"nombre":"tocache","casos":25}]},{"id":"PE-TAC","nombre":"tacna","nombre_original":"Tacna","casos":225,"porcentaje":0.0029290391449809288,"longitud":"-70.25","latitud":"-18.01","provincias":[{"nombre":"en investigación","casos":2},{"nombre":"jorge basadre","casos":1},{"nombre":"tacna","casos":221},{"nombre":"tarata","casos":1}]},{"id":"PE-TUM","nombre":"tumbes","nombre_original":"Tumbes","casos":593,"porcentaje":0.007719645390994181,"longitud":"-80.54","latitud":"-3.85","provincias":[{"nombre":"contralmirante villar","casos":41},{"nombre":"en investigación","casos":8},{"nombre":"tumbes","casos":459},{"nombre":"zarumilla","casos":85}]},{"id":"PE-UCA","nombre":"ucayali","nombre_original":"Ucayalí","casos":1570,"porcentaje":0.020438184256089148,"longitud":"-73.40","latitud":"-9.93","provincias":[{"nombre":"coronel portillo","casos":1548},{"nombre":"en investigación","casos":4},{"nombre":"padre abad","casos":18}]}],"genero":[{"nombre":"f","casos":30470,"porcentaje":0.3966569899891951},{"nombre":"m","casos":46347,"porcentaje":0.6033430100108049}],"edades":[{"nombre":"niños","casos":2241,"porcentaje":0.02917322988401005},{"nombre":"adolescentes","casos":1307,"porcentaje":0.017014462944400326},{"nombre":"jovenes","casos":13803,"porcentaje":0.17968678808076338},{"nombre":"adultos","casos":45661,"porcentaje":0.5944126951065519},{"nombre":"adultos mayores","casos":13805,"porcentaje":0.17971282398427432},{"nombre":"undefined","casos":0,"porcentaje":0}],"metododx":[{"nombre":"pr","casos":55192,"porcentaje":0.7184867932879441},{"nombre":"pcr","casos":21625,"porcentaje":0.28151320671205593}]}