{"ultima_fecha":20200512,"ultima_fecha_es":"12/05/2020","total":85715,"penultima_fecha":20200511,"penultima_fecha_es":"11/05/2020","penultimo_total":81364,"diferencia_total":4351,"departamentos":[{"id":"PE-AMA","nombre":"amazonas","nombre_original":"Amazonas","casos":407,"porcentaje":0.004748293764218632,"longitud":"-77.85","latitud":"-6.22","provincias":[{"nombre":"bagua","casos":95},{"nombre":"bongara","casos":19},{"nombre":"chachapoyas","casos":183},{"nombre":"condorcanqui","casos":1},{"nombre":"en investigación","casos":5},{"nombre":"luya","casos":8},{"nombre":"rodriguez de mendoza","casos":2},{"nombre":"utcubamba","casos":94}]},{"id":"PE-ANC","nombre":"ancash","nombre_original":"Áncash","casos":1909,"porcentaje":0.022271481070991073,"longitud":"-77.93","latitud":"-9.56","provincias":[{"nombre":"asuncion","casos":1},{"nombre":"bolognesi","casos":4},{"nombre":"carhuaz","casos":19},{"nombre":"casma","casos":51},{"nombre":"corongo","casos":1},{"nombre":"en investigación","casos":9},{"nombre":"huaraz","casos":297},{"nombre":"huari","casos":48},{"nombre":"huarmey","casos":19},{"nombre":"huaylas","casos":19},{"nombre":"mariscal luzuriaga","casos":7},{"nombre":"pallasca","casos":2},{"nombre":"pomabamba","casos":22},{"nombre":"recuay","casos":5},{"nombre":"santa","casos":1391},{"nombre":"sihuas","casos":6},{"nombre":"yungay","casos":8}]},{"id":"PE-APU","nombre":"apurimac","nombre_original":"Apurímac","casos":180,"porcentaje":0.002099982500145832,"longitud":"-72.94","latitud":"-14.05","provincias":[{"nombre":"abancay","casos":121},{"nombre":"andahuaylas","casos":50},{"nombre":"aymaraes","casos":1},{"nombre":"chincheros","casos":4},{"nombre":"cotabambas","casos":1},{"nombre":"en investigación","casos":1},{"nombre":"grau","casos":2}]},{"id":"PE-ARE","nombre":"arequipa","nombre_original":"Arequipa","casos":1407,"porcentaje":0.016414863209473253,"longitud":"-71.54","latitud":"-16.40","provincias":[{"nombre":"arequipa","casos":1265},{"nombre":"camana","casos":18},{"nombre":"caraveli","casos":36},{"nombre":"castilla","casos":5},{"nombre":"caylloma","casos":29},{"nombre":"en investigación","casos":3},{"nombre":"islay","casos":51}]},{"id":"PE-AYA","nombre":"ayacucho","nombre_original":"Ayacucho","casos":358,"porcentaje":0.004176631861401155,"longitud":"-74.22","latitud":"-13.16","provincias":[{"nombre":"cangallo","casos":2},{"nombre":"huamanga","casos":273},{"nombre":"huanta","casos":19},{"nombre":"la mar","casos":3},{"nombre":"lucanas","casos":31},{"nombre":"parinacochas","casos":20},{"nombre":"victor fajardo","casos":7},{"nombre":"vilcas huaman","casos":3}]},{"id":"PE-CAJ","nombre":"cajamarca","nombre_original":"Cajamarca","casos":439,"porcentaje":0.005121623986466779,"longitud":"-78.50","latitud":"-7.16","provincias":[{"nombre":"cajabamba","casos":2},{"nombre":"cajamarca","casos":139},{"nombre":"celendin","casos":21},{"nombre":"chota","casos":33},{"nombre":"contumaza","casos":6},{"nombre":"cutervo","casos":5},{"nombre":"en investigación","casos":4},{"nombre":"hualgayoc","casos":47},{"nombre":"jaen","casos":90},{"nombre":"san ignacio","casos":4},{"nombre":"san marcos","casos":1},{"nombre":"san miguel","casos":7},{"nombre":"san pablo","casos":7},{"nombre":"santa cruz","casos":73}]},{"id":"PE-CAL","nombre":"callao","nombre_original":"Callao","casos":6731,"porcentaje":0.07852767893600887,"longitud":"-77.12","latitud":"-12.06","provincias":[{"nombre":"callao","casos":6475},{"nombre":"en investigación","casos":256}]},{"id":"PE-CUS","nombre":"cusco","nombre_original":"Cusco","casos":622,"porcentaje":0.007256606194948376,"longitud":"-71.97","latitud":"-13.52","provincias":[{"nombre":"acomayo","casos":3},{"nombre":"anta","casos":14},{"nombre":"calca","casos":3},{"nombre":"canas","casos":10},{"nombre":"canchis","casos":17},{"nombre":"chumbivilcas","casos":13},{"nombre":"cusco","casos":484},{"nombre":"en investigación","casos":5},{"nombre":"espinar","casos":18},{"nombre":"la convencion","casos":17},{"nombre":"paruro","casos":11},{"nombre":"paucartambo","casos":5},{"nombre":"quispicanchi","casos":8},{"nombre":"urubamba","casos":14}]},{"id":"PE-HUV","nombre":"huancavelica","nombre_original":"Huancavelica","casos":367,"porcentaje":0.004281630986408447,"longitud":"-74.97","latitud":"-12.78","provincias":[{"nombre":"acobamba","casos":91},{"nombre":"angaraes","casos":69},{"nombre":"castrovirreyna","casos":1},{"nombre":"churcampa","casos":10},{"nombre":"en investigación","casos":1},{"nombre":"huancavelica","casos":158},{"nombre":"huaytara","casos":23},{"nombre":"tayacaja","casos":14}]},{"id":"PE-HUC","nombre":"huanuco","nombre_original":"Huánuco","casos":418,"porcentaje":0.004876626028116432,"longitud":"-76.24","latitud":"-9.93","provincias":[{"nombre":"ambo","casos":12},{"nombre":"dos de mayo","casos":8},{"nombre":"en investigación","casos":38},{"nombre":"huamalies","casos":71},{"nombre":"huanuco","casos":221},{"nombre":"lauricocha","casos":7},{"nombre":"leoncio prado","casos":42},{"nombre":"pachitea","casos":9},{"nombre":"puerto inca","casos":9},{"nombre":"yarowilca","casos":1}]},{"id":"PE-ICA","nombre":"ica","nombre_original":"Ica","casos":1389,"porcentaje":0.01620486495945867,"longitud":"-75.729","latitud":"-14.07","provincias":[{"nombre":"chincha","casos":384},{"nombre":"en investigación","casos":7},{"nombre":"ica","casos":555},{"nombre":"nazca","casos":116},{"nombre":"palpa","casos":151},{"nombre":"pisco","casos":176}]},{"id":"PE-JUN","nombre":"junin","nombre_original":"Junín","casos":1055,"porcentaje":0.012308230764743628,"longitud":"-74.79","latitud":"-11.56","provincias":[{"nombre":"chanchamayo","casos":126},{"nombre":"chupaca","casos":103},{"nombre":"concepcion","casos":18},{"nombre":"en investigación","casos":8},{"nombre":"huancayo","casos":476},{"nombre":"jauja","casos":39},{"nombre":"junin","casos":74},{"nombre":"satipo","casos":71},{"nombre":"tarma","casos":82},{"nombre":"yauli","casos":58}]},{"id":"PE-LAL","nombre":"la libertad","nombre_original":"La Libertad","casos":2123,"porcentaje":0.024768126932275564,"longitud":"-78.28","latitud":"-7.97","provincias":[{"nombre":"ascope","casos":54},{"nombre":"chepen","casos":230},{"nombre":"en investigación","casos":20},{"nombre":"gran chimu","casos":3},{"nombre":"pacasmayo","casos":47},{"nombre":"pataz","casos":41},{"nombre":"sanchez carrion","casos":10},{"nombre":"trujillo","casos":1575},{"nombre":"viru","casos":143}]},{"id":"PE-LAM","nombre":"lambayeque","nombre_original":"Lambayeque","casos":5079,"porcentaje":0.05925450621244823,"longitud":"-79.91","latitud":"-6.70","provincias":[{"nombre":"chiclayo","casos":3527},{"nombre":"en investigación","casos":10},{"nombre":"ferreñafe","casos":717},{"nombre":"lambayeque","casos":825}]},{"id":"PE-LMA","nombre":"lima","nombre_original":"Lima Metropolitana","casos":50097,"porcentaje":0.5844601294989208,"longitud":"-76.95","latitud":"-11.9","provincias":[{"nombre":"en investigación","casos":9},{"nombre":"lima","casos":50088}]},{"id":"PE-LIM","nombre":"lima region","nombre_original":"Lima Región","casos":2257,"porcentaje":0.026331447237939683,"longitud":"-76.64","latitud":"-11.92","provincias":[{"nombre":"barranca","casos":89},{"nombre":"cajatambo","casos":2},{"nombre":"canta","casos":19},{"nombre":"cañete","casos":658},{"nombre":"en investigación","casos":594},{"nombre":"huaral","casos":356},{"nombre":"huarochiri","casos":123},{"nombre":"huaura","casos":399},{"nombre":"oyon","casos":8},{"nombre":"yauyos","casos":9}]},{"id":"PE-LOR","nombre":"loreto","nombre_original":"Loreto","casos":2840,"porcentaje":0.03313305722452313,"longitud":"-74.63","latitud":"-4.28","provincias":[{"nombre":"alto amazonas","casos":121},{"nombre":"datem del marañon","casos":25},{"nombre":"en investigación","casos":10},{"nombre":"loreto","casos":89},{"nombre":"mariscal ramon castilla","casos":98},{"nombre":"maynas","casos":2450},{"nombre":"putumayo","casos":1},{"nombre":"requena","casos":16},{"nombre":"ucayali","casos":30}]},{"id":"PE-MDD","nombre":"madre de dios","nombre_original":"Madre de Dios","casos":203,"porcentaje":0.0023683135973866887,"longitud":"-70.53","latitud":"-12.05","provincias":[{"nombre":"tahuamanu","casos":13},{"nombre":"tambopata","casos":190}]},{"id":"PE-MOQ","nombre":"moquegua","nombre_original":"Moquegua","casos":241,"porcentaje":0.002811643236306364,"longitud":"-70.94","latitud":"-17.20","provincias":[{"nombre":"general sanchez cerro","casos":2},{"nombre":"ilo","casos":130},{"nombre":"mariscal nieto","casos":109}]},{"id":"PE-PAS","nombre":"pasco","nombre_original":"Pasco","casos":274,"porcentaje":0.0031966400279997667,"longitud":"-75.53","latitud":"-10.48","provincias":[{"nombre":"daniel alcides carrion","casos":19},{"nombre":"en investigación","casos":26},{"nombre":"oxapampa","casos":69},{"nombre":"pasco","casos":160}]},{"id":"PE-PIU","nombre":"piura","nombre_original":"Piura","casos":3795,"porcentaje":0.044274631044741296,"longitud":"-80.63","latitud":"-5.20","provincias":[{"nombre":"ayabaca","casos":32},{"nombre":"en investigación","casos":7},{"nombre":"huancabamba","casos":6},{"nombre":"morropon","casos":129},{"nombre":"paita","casos":296},{"nombre":"piura","casos":2437},{"nombre":"sechura","casos":73},{"nombre":"sullana","casos":663},{"nombre":"talara","casos":152}]},{"id":"PE-PUN","nombre":"puno","nombre_original":"Puno","casos":313,"porcentaje":0.003651636236364697,"longitud":"-70.04","latitud":"-15.84","provincias":[{"nombre":"azangaro","casos":10},{"nombre":"carabaya","casos":2},{"nombre":"chucuito","casos":26},{"nombre":"el collao","casos":13},{"nombre":"en investigación","casos":4},{"nombre":"huancane","casos":14},{"nombre":"lampa","casos":1},{"nombre":"melgar","casos":4},{"nombre":"puno","casos":152},{"nombre":"san antonio de putina","casos":2},{"nombre":"san roman","casos":60},{"nombre":"sandia","casos":10},{"nombre":"yunguyo","casos":15}]},{"id":"PE-SAM","nombre":"san martin","nombre_original":"San Martín","casos":575,"porcentaje":0.006708277431021408,"longitud":"-76.73","latitud":"-7.23","provincias":[{"nombre":"bellavista","casos":44},{"nombre":"el dorado","casos":3},{"nombre":"en investigación","casos":4},{"nombre":"huallaga","casos":3},{"nombre":"lamas","casos":10},{"nombre":"mariscal caceres","casos":24},{"nombre":"moyobamba","casos":167},{"nombre":"picota","casos":76},{"nombre":"rioja","casos":60},{"nombre":"san martin","casos":157},{"nombre":"tocache","casos":27}]},{"id":"PE-TAC","nombre":"tacna","nombre_original":"Tacna","casos":233,"porcentaje":0.002718310680744327,"longitud":"-70.25","latitud":"-18.01","provincias":[{"nombre":"en investigación","casos":2},{"nombre":"jorge basadre","casos":1},{"nombre":"tacna","casos":229},{"nombre":"tarata","casos":1}]},{"id":"PE-TUM","nombre":"tumbes","nombre_original":"Tumbes","casos":655,"porcentaje":0.007641602986641778,"longitud":"-80.54","latitud":"-3.85","provincias":[{"nombre":"contralmirante villar","casos":48},{"nombre":"en investigación","casos":8},{"nombre":"tumbes","casos":503},{"nombre":"zarumilla","casos":96}]},{"id":"PE-UCA","nombre":"ucayali","nombre_original":"Ucayalí","casos":1748,"porcentaje":0.020393163390305082,"longitud":"-73.40","latitud":"-9.93","provincias":[{"nombre":"coronel portillo","casos":1718},{"nombre":"en investigación","casos":4},{"nombre":"padre abad","casos":26}]}],"genero":[{"nombre":"f","casos":33897,"porcentaje":0.39546170448579593},{"nombre":"m","casos":51818,"porcentaje":0.604538295514204}],"edades":[{"nombre":"niños","casos":2442,"porcentaje":0.02848976258531179},{"nombre":"adolescentes","casos":1446,"porcentaje":0.016869859417838185},{"nombre":"jovenes","casos":15452,"porcentaje":0.18027183106807443},{"nombre":"adultos","casos":51101,"porcentaje":0.5961733652219565},{"nombre":"adultos mayores","casos":15274,"porcentaje":0.1781951817068191},{"nombre":"undefined","casos":0,"porcentaje":0}],"metododx":[{"nombre":"pr","casos":62079,"porcentaje":0.7242489645919618},{"nombre":"pcr","casos":23636,"porcentaje":0.27575103540803825}]}