{"ultima_fecha":20200518,"ultima_fecha_es":"18/05/2020","total":109292,"penultima_fecha":20200517,"penultima_fecha_es":"17/05/2020","penultimo_total":104156,"diferencia_total":5136,"departamentos":[{"id":"PE-AMA","nombre":"amazonas","nombre_original":"Amazonas","casos":494,"porcentaje":0.004520001463968085,"longitud":"-77.85","latitud":"-6.22","provincias":[{"nombre":"bagua","casos":138},{"nombre":"bongara","casos":20},{"nombre":"chachapoyas","casos":200},{"nombre":"condorcanqui","casos":1},{"nombre":"en investigación","casos":7},{"nombre":"luya","casos":9},{"nombre":"rodriguez de mendoza","casos":2},{"nombre":"utcubamba","casos":117}]},{"id":"PE-ANC","nombre":"ancash","nombre_original":"Áncash","casos":2656,"porcentaje":0.02430187021922922,"longitud":"-77.93","latitud":"-9.56","provincias":[{"nombre":"aija","casos":2},{"nombre":"asuncion","casos":1},{"nombre":"bolognesi","casos":7},{"nombre":"carhuaz","casos":24},{"nombre":"casma","casos":65},{"nombre":"corongo","casos":1},{"nombre":"en investigación","casos":9},{"nombre":"huaraz","casos":355},{"nombre":"huari","casos":50},{"nombre":"huarmey","casos":26},{"nombre":"huaylas","casos":26},{"nombre":"mariscal luzuriaga","casos":8},{"nombre":"pallasca","casos":2},{"nombre":"pomabamba","casos":25},{"nombre":"recuay","casos":9},{"nombre":"santa","casos":2024},{"nombre":"sihuas","casos":7},{"nombre":"yungay","casos":15}]},{"id":"PE-APU","nombre":"apurimac","nombre_original":"Apurímac","casos":193,"porcentaje":0.0017659115031292319,"longitud":"-72.94","latitud":"-14.05","provincias":[{"nombre":"abancay","casos":125},{"nombre":"andahuaylas","casos":54},{"nombre":"antabamba","casos":1},{"nombre":"aymaraes","casos":2},{"nombre":"chincheros","casos":5},{"nombre":"cotabambas","casos":3},{"nombre":"en investigación","casos":1},{"nombre":"grau","casos":2}]},{"id":"PE-ARE","nombre":"arequipa","nombre_original":"Arequipa","casos":1915,"porcentaje":0.01752186802327709,"longitud":"-71.54","latitud":"-16.40","provincias":[{"nombre":"arequipa","casos":1745},{"nombre":"camana","casos":22},{"nombre":"caraveli","casos":48},{"nombre":"castilla","casos":5},{"nombre":"caylloma","casos":33},{"nombre":"en investigación","casos":3},{"nombre":"islay","casos":59}]},{"id":"PE-AYA","nombre":"ayacucho","nombre_original":"Ayacucho","casos":505,"porcentaje":0.004620649269845917,"longitud":"-74.22","latitud":"-13.16","provincias":[{"nombre":"cangallo","casos":3},{"nombre":"en investigación","casos":1},{"nombre":"huamanga","casos":399},{"nombre":"huanta","casos":22},{"nombre":"la mar","casos":4},{"nombre":"lucanas","casos":36},{"nombre":"parinacochas","casos":28},{"nombre":"paucar del sara sara","casos":1},{"nombre":"victor fajardo","casos":7},{"nombre":"vilcas huaman","casos":4}]},{"id":"PE-CAJ","nombre":"cajamarca","nombre_original":"Cajamarca","casos":510,"porcentaje":0.004666398272517659,"longitud":"-78.50","latitud":"-7.16","provincias":[{"nombre":"cajabamba","casos":3},{"nombre":"cajamarca","casos":160},{"nombre":"celendin","casos":22},{"nombre":"chota","casos":35},{"nombre":"contumaza","casos":8},{"nombre":"cutervo","casos":6},{"nombre":"en investigación","casos":6},{"nombre":"hualgayoc","casos":47},{"nombre":"jaen","casos":124},{"nombre":"san ignacio","casos":7},{"nombre":"san marcos","casos":2},{"nombre":"san miguel","casos":7},{"nombre":"san pablo","casos":7},{"nombre":"santa cruz","casos":76}]},{"id":"PE-CAL","nombre":"callao","nombre_original":"Callao","casos":8283,"porcentaje":0.07578779782600739,"longitud":"-77.12","latitud":"-12.06","provincias":[{"nombre":"callao","casos":7937},{"nombre":"en investigación","casos":346}]},{"id":"PE-CUS","nombre":"cusco","nombre_original":"Cusco","casos":723,"porcentaje":0.0066153057863338575,"longitud":"-71.97","latitud":"-13.52","provincias":[{"nombre":"acomayo","casos":4},{"nombre":"anta","casos":19},{"nombre":"calca","casos":11},{"nombre":"canas","casos":10},{"nombre":"canchis","casos":17},{"nombre":"chumbivilcas","casos":16},{"nombre":"cusco","casos":554},{"nombre":"en investigación","casos":7},{"nombre":"espinar","casos":21},{"nombre":"la convencion","casos":23},{"nombre":"paruro","casos":12},{"nombre":"paucartambo","casos":5},{"nombre":"quispicanchi","casos":9},{"nombre":"urubamba","casos":15}]},{"id":"PE-HUV","nombre":"huancavelica","nombre_original":"Huancavelica","casos":410,"porcentaje":0.003751418219082824,"longitud":"-74.97","latitud":"-12.78","provincias":[{"nombre":"acobamba","casos":92},{"nombre":"angaraes","casos":70},{"nombre":"castrovirreyna","casos":6},{"nombre":"churcampa","casos":14},{"nombre":"en investigación","casos":1},{"nombre":"huancavelica","casos":184},{"nombre":"huaytara","casos":25},{"nombre":"tayacaja","casos":18}]},{"id":"PE-HUC","nombre":"huanuco","nombre_original":"Huánuco","casos":559,"porcentaje":0.005114738498700728,"longitud":"-76.24","latitud":"-9.93","provincias":[{"nombre":"ambo","casos":17},{"nombre":"dos de mayo","casos":8},{"nombre":"en investigación","casos":50},{"nombre":"huamalies","casos":87},{"nombre":"huanuco","casos":315},{"nombre":"lauricocha","casos":8},{"nombre":"leoncio prado","casos":45},{"nombre":"marañon","casos":1},{"nombre":"pachitea","casos":11},{"nombre":"puerto inca","casos":16},{"nombre":"yarowilca","casos":1}]},{"id":"PE-ICA","nombre":"ica","nombre_original":"Ica","casos":2000,"porcentaje":0.018299601068696703,"longitud":"-75.729","latitud":"-14.07","provincias":[{"nombre":"chincha","casos":643},{"nombre":"en investigación","casos":12},{"nombre":"ica","casos":696},{"nombre":"nazca","casos":214},{"nombre":"palpa","casos":162},{"nombre":"pisco","casos":273}]},{"id":"PE-JUN","nombre":"junin","nombre_original":"Junín","casos":1362,"porcentaje":0.012462028327782454,"longitud":"-74.79","latitud":"-11.56","provincias":[{"nombre":"chanchamayo","casos":176},{"nombre":"chupaca","casos":118},{"nombre":"concepcion","casos":31},{"nombre":"en investigación","casos":15},{"nombre":"huancayo","casos":615},{"nombre":"jauja","casos":57},{"nombre":"junin","casos":94},{"nombre":"satipo","casos":88},{"nombre":"tarma","casos":89},{"nombre":"yauli","casos":79}]},{"id":"PE-LAL","nombre":"la libertad","nombre_original":"La Libertad","casos":2768,"porcentaje":0.025326647879076236,"longitud":"-78.28","latitud":"-7.97","provincias":[{"nombre":"ascope","casos":85},{"nombre":"chepen","casos":243},{"nombre":"en investigación","casos":20},{"nombre":"gran chimu","casos":4},{"nombre":"julcan","casos":1},{"nombre":"otuzco","casos":1},{"nombre":"pacasmayo","casos":67},{"nombre":"pataz","casos":200},{"nombre":"sanchez carrion","casos":13},{"nombre":"santiago de chuco","casos":6},{"nombre":"trujillo","casos":1960},{"nombre":"viru","casos":168}]},{"id":"PE-LAM","nombre":"lambayeque","nombre_original":"Lambayeque","casos":6076,"porcentaje":0.055594188046700584,"longitud":"-79.91","latitud":"-6.70","provincias":[{"nombre":"chiclayo","casos":4186},{"nombre":"en investigación","casos":13},{"nombre":"ferreñafe","casos":816},{"nombre":"lambayeque","casos":1061}]},{"id":"PE-LMA","nombre":"lima","nombre_original":"Lima Metropolitana","casos":63418,"porcentaje":0.5802620502873037,"longitud":"-76.95","latitud":"-11.9","provincias":[{"nombre":"en investigación","casos":10},{"nombre":"lima","casos":63408}]},{"id":"PE-LIM","nombre":"lima region","nombre_original":"Lima Región","casos":3082,"porcentaje":0.02819968524686162,"longitud":"-76.64","latitud":"-11.92","provincias":[{"nombre":"barranca","casos":132},{"nombre":"cajatambo","casos":7},{"nombre":"canta","casos":24},{"nombre":"cañete","casos":834},{"nombre":"en investigación","casos":691},{"nombre":"huaral","casos":705},{"nombre":"huarochiri","casos":165},{"nombre":"huaura","casos":502},{"nombre":"oyon","casos":10},{"nombre":"yauyos","casos":12}]},{"id":"PE-LOR","nombre":"loreto","nombre_original":"Loreto","casos":3782,"porcentaje":0.034604545620905466,"longitud":"-74.63","latitud":"-4.28","provincias":[{"nombre":"alto amazonas","casos":260},{"nombre":"datem del marañon","casos":47},{"nombre":"en investigación","casos":16},{"nombre":"loreto","casos":164},{"nombre":"mariscal ramon castilla","casos":157},{"nombre":"maynas","casos":3008},{"nombre":"putumayo","casos":1},{"nombre":"requena","casos":19},{"nombre":"ucayali","casos":110}]},{"id":"PE-MDD","nombre":"madre de dios","nombre_original":"Madre de Dios","casos":272,"porcentaje":0.0024887457453427516,"longitud":"-70.53","latitud":"-12.05","provincias":[{"nombre":"manu","casos":1},{"nombre":"tahuamanu","casos":26},{"nombre":"tambopata","casos":245}]},{"id":"PE-MOQ","nombre":"moquegua","nombre_original":"Moquegua","casos":288,"porcentaje":0.0026351425538923253,"longitud":"-70.94","latitud":"-17.20","provincias":[{"nombre":"en investigación","casos":11},{"nombre":"general sanchez cerro","casos":2},{"nombre":"ilo","casos":141},{"nombre":"mariscal nieto","casos":134}]},{"id":"PE-PAS","nombre":"pasco","nombre_original":"Pasco","casos":348,"porcentaje":0.0031841305859532263,"longitud":"-75.53","latitud":"-10.48","provincias":[{"nombre":"daniel alcides carrion","casos":19},{"nombre":"en investigación","casos":41},{"nombre":"oxapampa","casos":76},{"nombre":"pasco","casos":212}]},{"id":"PE-PIU","nombre":"piura","nombre_original":"Piura","casos":4462,"porcentaje":0.040826409984262346,"longitud":"-80.63","latitud":"-5.20","provincias":[{"nombre":"ayabaca","casos":36},{"nombre":"en investigación","casos":12},{"nombre":"huancabamba","casos":9},{"nombre":"morropon","casos":149},{"nombre":"paita","casos":317},{"nombre":"piura","casos":2778},{"nombre":"sechura","casos":97},{"nombre":"sullana","casos":856},{"nombre":"talara","casos":208}]},{"id":"PE-PUN","nombre":"puno","nombre_original":"Puno","casos":337,"porcentaje":0.0030834827800753943,"longitud":"-70.04","latitud":"-15.84","provincias":[{"nombre":"azangaro","casos":11},{"nombre":"carabaya","casos":3},{"nombre":"chucuito","casos":27},{"nombre":"el collao","casos":13},{"nombre":"en investigación","casos":4},{"nombre":"huancane","casos":15},{"nombre":"lampa","casos":1},{"nombre":"melgar","casos":4},{"nombre":"puno","casos":168},{"nombre":"san antonio de putina","casos":2},{"nombre":"san roman","casos":64},{"nombre":"sandia","casos":10},{"nombre":"yunguyo","casos":15}]},{"id":"PE-SAM","nombre":"san martin","nombre_original":"San Martín","casos":830,"porcentaje":0.007594334443509132,"longitud":"-76.73","latitud":"-7.23","provincias":[{"nombre":"bellavista","casos":49},{"nombre":"el dorado","casos":5},{"nombre":"en investigación","casos":6},{"nombre":"huallaga","casos":22},{"nombre":"lamas","casos":34},{"nombre":"mariscal caceres","casos":49},{"nombre":"moyobamba","casos":234},{"nombre":"picota","casos":81},{"nombre":"rioja","casos":71},{"nombre":"san martin","casos":215},{"nombre":"tocache","casos":64}]},{"id":"PE-TAC","nombre":"tacna","nombre_original":"Tacna","casos":298,"porcentaje":0.0027266405592358085,"longitud":"-70.25","latitud":"-18.01","provincias":[{"nombre":"en investigación","casos":2},{"nombre":"jorge basadre","casos":1},{"nombre":"tacna","casos":294},{"nombre":"tarata","casos":1}]},{"id":"PE-TUM","nombre":"tumbes","nombre_original":"Tumbes","casos":830,"porcentaje":0.007594334443509132,"longitud":"-80.54","latitud":"-3.85","provincias":[{"nombre":"contralmirante villar","casos":58},{"nombre":"en investigación","casos":9},{"nombre":"tumbes","casos":654},{"nombre":"zarumilla","casos":109}]},{"id":"PE-UCA","nombre":"ucayali","nombre_original":"Ucayalí","casos":2891,"porcentaje":0.026452073344801083,"longitud":"-73.40","latitud":"-9.93","provincias":[{"nombre":"coronel portillo","casos":2800},{"nombre":"en investigación","casos":19},{"nombre":"padre abad","casos":72}]}],"genero":[{"nombre":"f","casos":42950,"porcentaje":0.3929839329502617},{"nombre":"m","casos":66342,"porcentaje":0.6070160670497383}],"edades":[{"nombre":"niños","casos":2949,"porcentaje":0.026982761775793288},{"nombre":"adolescentes","casos":1793,"porcentaje":0.016405592358086595},{"nombre":"jovenes","casos":20418,"porcentaje":0.18682062731032464},{"nombre":"adultos","casos":65459,"porcentaje":0.5989367931779087},{"nombre":"adultos mayores","casos":18673,"porcentaje":0.17085422537788678},{"nombre":"undefined","casos":0,"porcentaje":0}],"metododx":[{"nombre":"pr","casos":80645,"porcentaje":0.7378856640925228},{"nombre":"ag","casos":1,"porcentaje":0.000009149800534348351},{"nombre":"pcr","casos":28646,"porcentaje":0.2621051861069429}]}