{"ultima_fecha":20200521,"ultima_fecha_es":"21/05/2020","total":125334,"penultima_fecha":20200520,"penultima_fecha_es":"20/05/2020","penultimo_total":119800,"diferencia_total":5534,"departamentos":[{"id":"PE-AMA","nombre":"amazonas","nombre_original":"Amazonas","casos":590,"porcentaje":0.004707421769033143,"longitud":"-77.85","latitud":"-6.22","provincias":[{"nombre":"bagua","casos":161},{"nombre":"bongara","casos":20},{"nombre":"chachapoyas","casos":220},{"nombre":"condorcanqui","casos":1},{"nombre":"en investigación","casos":8},{"nombre":"luya","casos":14},{"nombre":"rodriguez de mendoza","casos":2},{"nombre":"utcubamba","casos":164}]},{"id":"PE-ANC","nombre":"ancash","nombre_original":"Áncash","casos":3196,"porcentaje":0.025499864362423606,"longitud":"-77.93","latitud":"-9.56","provincias":[{"nombre":"aija","casos":5},{"nombre":"antonio raimondi","casos":1},{"nombre":"asuncion","casos":1},{"nombre":"bolognesi","casos":7},{"nombre":"carhuaz","casos":25},{"nombre":"casma","casos":70},{"nombre":"corongo","casos":1},{"nombre":"en investigación","casos":12},{"nombre":"huaraz","casos":393},{"nombre":"huari","casos":52},{"nombre":"huarmey","casos":27},{"nombre":"huaylas","casos":28},{"nombre":"mariscal luzuriaga","casos":14},{"nombre":"pallasca","casos":2},{"nombre":"pomabamba","casos":25},{"nombre":"recuay","casos":12},{"nombre":"santa","casos":2498},{"nombre":"sihuas","casos":7},{"nombre":"yungay","casos":16}]},{"id":"PE-APU","nombre":"apurimac","nombre_original":"Apurímac","casos":201,"porcentaje":0.001603714873857054,"longitud":"-72.94","latitud":"-14.05","provincias":[{"nombre":"abancay","casos":130},{"nombre":"andahuaylas","casos":56},{"nombre":"antabamba","casos":1},{"nombre":"aymaraes","casos":2},{"nombre":"chincheros","casos":6},{"nombre":"cotabambas","casos":3},{"nombre":"en investigación","casos":1},{"nombre":"grau","casos":2}]},{"id":"PE-ARE","nombre":"arequipa","nombre_original":"Arequipa","casos":2337,"porcentaje":0.018646177413949926,"longitud":"-71.54","latitud":"-16.40","provincias":[{"nombre":"arequipa","casos":2116},{"nombre":"camana","casos":25},{"nombre":"caraveli","casos":61},{"nombre":"castilla","casos":8},{"nombre":"caylloma","casos":38},{"nombre":"condesuyos","casos":2},{"nombre":"en investigación","casos":5},{"nombre":"islay","casos":81},{"nombre":"la union","casos":1}]},{"id":"PE-AYA","nombre":"ayacucho","nombre_original":"Ayacucho","casos":561,"porcentaje":0.004476040021063717,"longitud":"-74.22","latitud":"-13.16","provincias":[{"nombre":"cangallo","casos":5},{"nombre":"en investigación","casos":2},{"nombre":"huamanga","casos":439},{"nombre":"huanta","casos":23},{"nombre":"la mar","casos":4},{"nombre":"lucanas","casos":37},{"nombre":"parinacochas","casos":33},{"nombre":"paucar del sara sara","casos":7},{"nombre":"victor fajardo","casos":7},{"nombre":"vilcas huaman","casos":4}]},{"id":"PE-CAJ","nombre":"cajamarca","nombre_original":"Cajamarca","casos":585,"porcentaje":0.004667528364210829,"longitud":"-78.50","latitud":"-7.16","provincias":[{"nombre":"cajabamba","casos":4},{"nombre":"cajamarca","casos":200},{"nombre":"celendin","casos":22},{"nombre":"chota","casos":38},{"nombre":"contumaza","casos":9},{"nombre":"cutervo","casos":6},{"nombre":"en investigación","casos":6},{"nombre":"hualgayoc","casos":49},{"nombre":"jaen","casos":144},{"nombre":"san ignacio","casos":7},{"nombre":"san marcos","casos":4},{"nombre":"san miguel","casos":9},{"nombre":"san pablo","casos":7},{"nombre":"santa cruz","casos":80}]},{"id":"PE-CAL","nombre":"callao","nombre_original":"Callao","casos":9396,"porcentaje":0.07496768634209393,"longitud":"-77.12","latitud":"-12.06","provincias":[{"nombre":"callao","casos":8976},{"nombre":"en investigación","casos":420}]},{"id":"PE-CUS","nombre":"cusco","nombre_original":"Cusco","casos":835,"porcentaje":0.006662198605326568,"longitud":"-71.97","latitud":"-13.52","provincias":[{"nombre":"acomayo","casos":4},{"nombre":"anta","casos":38},{"nombre":"calca","casos":14},{"nombre":"canas","casos":11},{"nombre":"canchis","casos":20},{"nombre":"chumbivilcas","casos":19},{"nombre":"cusco","casos":615},{"nombre":"en investigación","casos":8},{"nombre":"espinar","casos":30},{"nombre":"la convencion","casos":32},{"nombre":"paruro","casos":12},{"nombre":"paucartambo","casos":6},{"nombre":"quispicanchi","casos":11},{"nombre":"urubamba","casos":15}]},{"id":"PE-HUV","nombre":"huancavelica","nombre_original":"Huancavelica","casos":453,"porcentaje":0.0036143424769017186,"longitud":"-74.97","latitud":"-12.78","provincias":[{"nombre":"acobamba","casos":105},{"nombre":"angaraes","casos":70},{"nombre":"castrovirreyna","casos":6},{"nombre":"churcampa","casos":17},{"nombre":"en investigación","casos":2},{"nombre":"huancavelica","casos":204},{"nombre":"huaytara","casos":25},{"nombre":"tayacaja","casos":24}]},{"id":"PE-HUC","nombre":"huanuco","nombre_original":"Huánuco","casos":606,"porcentaje":0.0048350806644645505,"longitud":"-76.24","latitud":"-9.93","provincias":[{"nombre":"ambo","casos":22},{"nombre":"dos de mayo","casos":9},{"nombre":"en investigación","casos":56},{"nombre":"huamalies","casos":88},{"nombre":"huanuco","casos":339},{"nombre":"lauricocha","casos":8},{"nombre":"leoncio prado","casos":49},{"nombre":"marañon","casos":1},{"nombre":"pachitea","casos":13},{"nombre":"puerto inca","casos":17},{"nombre":"yarowilca","casos":4}]},{"id":"PE-ICA","nombre":"ica","nombre_original":"Ica","casos":2382,"porcentaje":0.01900521805735076,"longitud":"-75.729","latitud":"-14.07","provincias":[{"nombre":"chincha","casos":776},{"nombre":"en investigación","casos":12},{"nombre":"ica","casos":823},{"nombre":"nazca","casos":253},{"nombre":"palpa","casos":170},{"nombre":"pisco","casos":348}]},{"id":"PE-JUN","nombre":"junin","nombre_original":"Junín","casos":1489,"porcentaje":0.01188025595608534,"longitud":"-74.79","latitud":"-11.56","provincias":[{"nombre":"chanchamayo","casos":205},{"nombre":"chupaca","casos":130},{"nombre":"concepcion","casos":33},{"nombre":"en investigación","casos":16},{"nombre":"huancayo","casos":674},{"nombre":"jauja","casos":60},{"nombre":"junin","casos":97},{"nombre":"satipo","casos":92},{"nombre":"tarma","casos":98},{"nombre":"yauli","casos":84}]},{"id":"PE-LAL","nombre":"la libertad","nombre_original":"La Libertad","casos":3314,"porcentaje":0.02644134871623023,"longitud":"-78.28","latitud":"-7.97","provincias":[{"nombre":"ascope","casos":130},{"nombre":"chepen","casos":272},{"nombre":"en investigación","casos":22},{"nombre":"gran chimu","casos":5},{"nombre":"julcan","casos":1},{"nombre":"otuzco","casos":8},{"nombre":"pacasmayo","casos":76},{"nombre":"pataz","casos":212},{"nombre":"sanchez carrion","casos":16},{"nombre":"santiago de chuco","casos":11},{"nombre":"trujillo","casos":2335},{"nombre":"viru","casos":226}]},{"id":"PE-LAM","nombre":"lambayeque","nombre_original":"Lambayeque","casos":6594,"porcentaje":0.052611422279668724,"longitud":"-79.91","latitud":"-6.70","provincias":[{"nombre":"chiclayo","casos":4506},{"nombre":"en investigación","casos":14},{"nombre":"ferreñafe","casos":862},{"nombre":"lambayeque","casos":1212}]},{"id":"PE-LMA","nombre":"lima","nombre_original":"Lima Metropolitana","casos":71682,"porcentaje":0.5719278088946336,"longitud":"-76.95","latitud":"-11.9","provincias":[{"nombre":"en investigación","casos":10},{"nombre":"lima","casos":71672}]},{"id":"PE-LIM","nombre":"lima region","nombre_original":"Lima Región","casos":3538,"porcentaje":0.028228573252269934,"longitud":"-76.64","latitud":"-11.92","provincias":[{"nombre":"barranca","casos":149},{"nombre":"cajatambo","casos":7},{"nombre":"canta","casos":24},{"nombre":"cañete","casos":978},{"nombre":"en investigación","casos":749},{"nombre":"huaral","casos":837},{"nombre":"huarochiri","casos":200},{"nombre":"huaura","casos":567},{"nombre":"oyon","casos":12},{"nombre":"yauyos","casos":15}]},{"id":"PE-LOR","nombre":"loreto","nombre_original":"Loreto","casos":4447,"porcentaje":0.03548119424896676,"longitud":"-74.63","latitud":"-4.28","provincias":[{"nombre":"alto amazonas","casos":286},{"nombre":"datem del marañon","casos":62},{"nombre":"en investigación","casos":16},{"nombre":"loreto","casos":195},{"nombre":"mariscal ramon castilla","casos":183},{"nombre":"maynas","casos":3563},{"nombre":"putumayo","casos":1},{"nombre":"requena","casos":24},{"nombre":"ucayali","casos":117}]},{"id":"PE-MDD","nombre":"madre de dios","nombre_original":"Madre de Dios","casos":298,"porcentaje":0.0023776469274099606,"longitud":"-70.53","latitud":"-12.05","provincias":[{"nombre":"manu","casos":1},{"nombre":"tahuamanu","casos":26},{"nombre":"tambopata","casos":271}]},{"id":"PE-MOQ","nombre":"moquegua","nombre_original":"Moquegua","casos":446,"porcentaje":0.003558491710150478,"longitud":"-70.94","latitud":"-17.20","provincias":[{"nombre":"en investigación","casos":12},{"nombre":"general sanchez cerro","casos":4},{"nombre":"ilo","casos":218},{"nombre":"mariscal nieto","casos":212}]},{"id":"PE-PAS","nombre":"pasco","nombre_original":"Pasco","casos":429,"porcentaje":0.0034228541337546076,"longitud":"-75.53","latitud":"-10.48","provincias":[{"nombre":"daniel alcides carrion","casos":19},{"nombre":"en investigación","casos":64},{"nombre":"oxapampa","casos":103},{"nombre":"pasco","casos":243}]},{"id":"PE-PIU","nombre":"piura","nombre_original":"Piura","casos":5706,"porcentaje":0.04552635358322562,"longitud":"-80.63","latitud":"-5.20","provincias":[{"nombre":"ayabaca","casos":42},{"nombre":"en investigación","casos":14},{"nombre":"huancabamba","casos":15},{"nombre":"morropon","casos":193},{"nombre":"paita","casos":404},{"nombre":"piura","casos":3456},{"nombre":"sechura","casos":104},{"nombre":"sullana","casos":1223},{"nombre":"talara","casos":255}]},{"id":"PE-PUN","nombre":"puno","nombre_original":"Puno","casos":393,"porcentaje":0.003135621619033941,"longitud":"-70.04","latitud":"-15.84","provincias":[{"nombre":"azangaro","casos":13},{"nombre":"carabaya","casos":3},{"nombre":"chucuito","casos":27},{"nombre":"el collao","casos":26},{"nombre":"en investigación","casos":7},{"nombre":"huancane","casos":17},{"nombre":"lampa","casos":6},{"nombre":"melgar","casos":7},{"nombre":"puno","casos":174},{"nombre":"san antonio de putina","casos":2},{"nombre":"san roman","casos":86},{"nombre":"sandia","casos":10},{"nombre":"yunguyo","casos":15}]},{"id":"PE-SAM","nombre":"san martin","nombre_original":"San Martín","casos":1015,"porcentaje":0.008098361178929899,"longitud":"-76.73","latitud":"-7.23","provincias":[{"nombre":"bellavista","casos":54},{"nombre":"el dorado","casos":7},{"nombre":"en investigación","casos":6},{"nombre":"huallaga","casos":23},{"nombre":"lamas","casos":50},{"nombre":"mariscal caceres","casos":68},{"nombre":"moyobamba","casos":279},{"nombre":"picota","casos":99},{"nombre":"rioja","casos":88},{"nombre":"san martin","casos":272},{"nombre":"tocache","casos":69}]},{"id":"PE-TAC","nombre":"tacna","nombre_original":"Tacna","casos":369,"porcentaje":0.0029441332758868306,"longitud":"-70.25","latitud":"-18.01","provincias":[{"nombre":"en investigación","casos":2},{"nombre":"jorge basadre","casos":3},{"nombre":"tacna","casos":363},{"nombre":"tarata","casos":1}]},{"id":"PE-TUM","nombre":"tumbes","nombre_original":"Tumbes","casos":952,"porcentaje":0.007595704278168733,"longitud":"-80.54","latitud":"-3.85","provincias":[{"nombre":"contralmirante villar","casos":69},{"nombre":"en investigación","casos":10},{"nombre":"tumbes","casos":751},{"nombre":"zarumilla","casos":122}]},{"id":"PE-UCA","nombre":"ucayali","nombre_original":"Ucayalí","casos":3520,"porcentaje":0.0280849569949096,"longitud":"-73.40","latitud":"-9.93","provincias":[{"nombre":"coronel portillo","casos":3404},{"nombre":"en investigación","casos":22},{"nombre":"padre abad","casos":94}]}],"genero":[{"nombre":"f","casos":49330,"porcentaje":0.3935883319769576},{"nombre":"m","casos":76004,"porcentaje":0.6064116680230425}],"edades":[{"nombre":"niños","casos":3250,"porcentaje":0.025930713134504603},{"nombre":"adolescentes","casos":1989,"porcentaje":0.015869596438316817},{"nombre":"jovenes","casos":23787,"porcentaje":0.18978888410168032},{"nombre":"adultos","casos":75429,"porcentaje":0.6018239264684763},{"nombre":"adultos mayores","casos":20879,"porcentaje":0.16658687985702203},{"nombre":"undefined","casos":0,"porcentaje":0}],"metododx":[{"nombre":"pr","casos":94596,"porcentaje":0.7547513045143377},{"nombre":"pcr","casos":30738,"porcentaje":0.2452486954856623}]}