{"ultima_fecha":20200522,"ultima_fecha_es":"22/05/2020","total":131459,"penultima_fecha":20200521,"penultima_fecha_es":"21/05/2020","penultimo_total":125336,"diferencia_total":6123,"departamentos":[{"id":"PE-AMA","nombre":"amazonas","nombre_original":"Amazonas","casos":615,"porcentaje":0.0046782647061060865,"longitud":"-77.85","latitud":"-6.22","provincias":[{"nombre":"bagua","casos":165},{"nombre":"bongara","casos":20},{"nombre":"chachapoyas","casos":222},{"nombre":"condorcanqui","casos":1},{"nombre":"en investigación","casos":15},{"nombre":"luya","casos":19},{"nombre":"rodriguez de mendoza","casos":3},{"nombre":"utcubamba","casos":170}]},{"id":"PE-ANC","nombre":"ancash","nombre_original":"Áncash","casos":3377,"porcentaje":0.025688617743935372,"longitud":"-77.93","latitud":"-9.56","provincias":[{"nombre":"aija","casos":5},{"nombre":"antonio raimondi","casos":1},{"nombre":"asuncion","casos":1},{"nombre":"bolognesi","casos":7},{"nombre":"carhuaz","casos":26},{"nombre":"casma","casos":78},{"nombre":"corongo","casos":1},{"nombre":"en investigación","casos":12},{"nombre":"huaraz","casos":416},{"nombre":"huari","casos":53},{"nombre":"huarmey","casos":28},{"nombre":"huaylas","casos":28},{"nombre":"mariscal luzuriaga","casos":14},{"nombre":"pallasca","casos":2},{"nombre":"pomabamba","casos":25},{"nombre":"recuay","casos":16},{"nombre":"santa","casos":2641},{"nombre":"sihuas","casos":7},{"nombre":"yungay","casos":16}]},{"id":"PE-APU","nombre":"apurimac","nombre_original":"Apurímac","casos":215,"porcentaje":0.0016354909135167619,"longitud":"-72.94","latitud":"-14.05","provincias":[{"nombre":"abancay","casos":135},{"nombre":"andahuaylas","casos":59},{"nombre":"antabamba","casos":1},{"nombre":"aymaraes","casos":3},{"nombre":"chincheros","casos":6},{"nombre":"cotabambas","casos":8},{"nombre":"en investigación","casos":1},{"nombre":"grau","casos":2}]},{"id":"PE-ARE","nombre":"arequipa","nombre_original":"Arequipa","casos":2534,"porcentaje":0.01927597197605337,"longitud":"-71.54","latitud":"-16.40","provincias":[{"nombre":"arequipa","casos":2302},{"nombre":"camana","casos":27},{"nombre":"caraveli","casos":64},{"nombre":"castilla","casos":9},{"nombre":"caylloma","casos":42},{"nombre":"condesuyos","casos":2},{"nombre":"en investigación","casos":6},{"nombre":"islay","casos":81},{"nombre":"la union","casos":1}]},{"id":"PE-AYA","nombre":"ayacucho","nombre_original":"Ayacucho","casos":602,"porcentaje":0.004579374557846933,"longitud":"-74.22","latitud":"-13.16","provincias":[{"nombre":"cangallo","casos":5},{"nombre":"en investigación","casos":2},{"nombre":"huamanga","casos":479},{"nombre":"huanta","casos":23},{"nombre":"la mar","casos":4},{"nombre":"lucanas","casos":37},{"nombre":"parinacochas","casos":33},{"nombre":"paucar del sara sara","casos":7},{"nombre":"victor fajardo","casos":7},{"nombre":"vilcas huaman","casos":5}]},{"id":"PE-CAJ","nombre":"cajamarca","nombre_original":"Cajamarca","casos":614,"porcentaje":0.004670657771624613,"longitud":"-78.50","latitud":"-7.16","provincias":[{"nombre":"cajabamba","casos":4},{"nombre":"cajamarca","casos":219},{"nombre":"celendin","casos":22},{"nombre":"chota","casos":38},{"nombre":"contumaza","casos":9},{"nombre":"cutervo","casos":6},{"nombre":"en investigación","casos":6},{"nombre":"hualgayoc","casos":50},{"nombre":"jaen","casos":153},{"nombre":"san ignacio","casos":7},{"nombre":"san marcos","casos":4},{"nombre":"san miguel","casos":9},{"nombre":"san pablo","casos":7},{"nombre":"santa cruz","casos":80}]},{"id":"PE-CAL","nombre":"callao","nombre_original":"Callao","casos":9825,"porcentaje":0.07473813128047528,"longitud":"-77.12","latitud":"-12.06","provincias":[{"nombre":"callao","casos":9364},{"nombre":"en investigación","casos":461}]},{"id":"PE-CUS","nombre":"cusco","nombre_original":"Cusco","casos":879,"porcentaje":0.00668649540921504,"longitud":"-71.97","latitud":"-13.52","provincias":[{"nombre":"acomayo","casos":5},{"nombre":"anta","casos":39},{"nombre":"calca","casos":14},{"nombre":"canas","casos":12},{"nombre":"canchis","casos":22},{"nombre":"chumbivilcas","casos":19},{"nombre":"cusco","casos":651},{"nombre":"en investigación","casos":8},{"nombre":"espinar","casos":30},{"nombre":"la convencion","casos":35},{"nombre":"paruro","casos":12},{"nombre":"paucartambo","casos":6},{"nombre":"quispicanchi","casos":11},{"nombre":"urubamba","casos":15}]},{"id":"PE-HUV","nombre":"huancavelica","nombre_original":"Huancavelica","casos":477,"porcentaje":0.0036285077476627694,"longitud":"-74.97","latitud":"-12.78","provincias":[{"nombre":"acobamba","casos":108},{"nombre":"angaraes","casos":70},{"nombre":"castrovirreyna","casos":18},{"nombre":"churcampa","casos":18},{"nombre":"en investigación","casos":2},{"nombre":"huancavelica","casos":209},{"nombre":"huaytara","casos":26},{"nombre":"tayacaja","casos":26}]},{"id":"PE-HUC","nombre":"huanuco","nombre_original":"Huánuco","casos":644,"porcentaje":0.004898865806068812,"longitud":"-76.24","latitud":"-9.93","provincias":[{"nombre":"ambo","casos":22},{"nombre":"dos de mayo","casos":9},{"nombre":"en investigación","casos":56},{"nombre":"huamalies","casos":97},{"nombre":"huanuco","casos":353},{"nombre":"lauricocha","casos":8},{"nombre":"leoncio prado","casos":52},{"nombre":"marañon","casos":1},{"nombre":"pachitea","casos":16},{"nombre":"puerto inca","casos":26},{"nombre":"yarowilca","casos":4}]},{"id":"PE-ICA","nombre":"ica","nombre_original":"Ica","casos":2490,"porcentaje":0.018941266858868544,"longitud":"-75.729","latitud":"-14.07","provincias":[{"nombre":"chincha","casos":810},{"nombre":"en investigación","casos":12},{"nombre":"ica","casos":846},{"nombre":"nazca","casos":294},{"nombre":"palpa","casos":171},{"nombre":"pisco","casos":357}]},{"id":"PE-JUN","nombre":"junin","nombre_original":"Junín","casos":1543,"porcentaje":0.01173749990491332,"longitud":"-74.79","latitud":"-11.56","provincias":[{"nombre":"chanchamayo","casos":224},{"nombre":"chupaca","casos":131},{"nombre":"concepcion","casos":33},{"nombre":"en investigación","casos":17},{"nombre":"huancayo","casos":694},{"nombre":"jauja","casos":63},{"nombre":"junin","casos":97},{"nombre":"satipo","casos":94},{"nombre":"tarma","casos":99},{"nombre":"yauli","casos":91}]},{"id":"PE-LAL","nombre":"la libertad","nombre_original":"La Libertad","casos":3549,"porcentaje":0.02699701047474878,"longitud":"-78.28","latitud":"-7.97","provincias":[{"nombre":"ascope","casos":145},{"nombre":"chepen","casos":303},{"nombre":"en investigación","casos":22},{"nombre":"gran chimu","casos":5},{"nombre":"julcan","casos":1},{"nombre":"otuzco","casos":10},{"nombre":"pacasmayo","casos":100},{"nombre":"pataz","casos":212},{"nombre":"sanchez carrion","casos":19},{"nombre":"santiago de chuco","casos":11},{"nombre":"trujillo","casos":2489},{"nombre":"viru","casos":232}]},{"id":"PE-LAM","nombre":"lambayeque","nombre_original":"Lambayeque","casos":6752,"porcentaje":0.051362021618907794,"longitud":"-79.91","latitud":"-6.70","provincias":[{"nombre":"chiclayo","casos":4617},{"nombre":"en investigación","casos":14},{"nombre":"ferreñafe","casos":867},{"nombre":"lambayeque","casos":1254}]},{"id":"PE-LMA","nombre":"lima","nombre_original":"Lima Metropolitana","casos":74912,"porcentaje":0.5698506758761287,"longitud":"-76.95","latitud":"-11.9","provincias":[{"nombre":"en investigación","casos":11},{"nombre":"lima","casos":74901}]},{"id":"PE-LIM","nombre":"lima region","nombre_original":"Lima Región","casos":3735,"porcentaje":0.028411900288302816,"longitud":"-76.64","latitud":"-11.92","provincias":[{"nombre":"barranca","casos":153},{"nombre":"cajatambo","casos":7},{"nombre":"canta","casos":26},{"nombre":"cañete","casos":1044},{"nombre":"en investigación","casos":782},{"nombre":"huaral","casos":897},{"nombre":"huarochiri","casos":211},{"nombre":"huaura","casos":584},{"nombre":"oyon","casos":16},{"nombre":"yauyos","casos":15}]},{"id":"PE-LOR","nombre":"loreto","nombre_original":"Loreto","casos":4605,"porcentaje":0.035029933287184595,"longitud":"-74.63","latitud":"-4.28","provincias":[{"nombre":"alto amazonas","casos":308},{"nombre":"datem del marañon","casos":64},{"nombre":"en investigación","casos":16},{"nombre":"loreto","casos":209},{"nombre":"mariscal ramon castilla","casos":192},{"nombre":"maynas","casos":3668},{"nombre":"putumayo","casos":1},{"nombre":"requena","casos":25},{"nombre":"ucayali","casos":122}]},{"id":"PE-MDD","nombre":"madre de dios","nombre_original":"Madre de Dios","casos":340,"porcentaje":0.0025863577237009256,"longitud":"-70.53","latitud":"-12.05","provincias":[{"nombre":"manu","casos":1},{"nombre":"tahuamanu","casos":26},{"nombre":"tambopata","casos":313}]},{"id":"PE-MOQ","nombre":"moquegua","nombre_original":"Moquegua","casos":506,"porcentaje":0.0038491088476254954,"longitud":"-70.94","latitud":"-17.20","provincias":[{"nombre":"en investigación","casos":12},{"nombre":"general sanchez cerro","casos":5},{"nombre":"ilo","casos":247},{"nombre":"mariscal nieto","casos":242}]},{"id":"PE-PAS","nombre":"pasco","nombre_original":"Pasco","casos":481,"porcentaje":0.0036589354855886625,"longitud":"-75.53","latitud":"-10.48","provincias":[{"nombre":"daniel alcides carrion","casos":19},{"nombre":"en investigación","casos":70},{"nombre":"oxapampa","casos":122},{"nombre":"pasco","casos":270}]},{"id":"PE-PIU","nombre":"piura","nombre_original":"Piura","casos":6189,"porcentaje":0.047079317505838325,"longitud":"-80.63","latitud":"-5.20","provincias":[{"nombre":"ayabaca","casos":45},{"nombre":"en investigación","casos":16},{"nombre":"huancabamba","casos":15},{"nombre":"morropon","casos":201},{"nombre":"paita","casos":444},{"nombre":"piura","casos":3694},{"nombre":"sechura","casos":107},{"nombre":"sullana","casos":1380},{"nombre":"talara","casos":287}]},{"id":"PE-PUN","nombre":"puno","nombre_original":"Puno","casos":418,"porcentaje":0.003179698613255844,"longitud":"-70.04","latitud":"-15.84","provincias":[{"nombre":"azangaro","casos":13},{"nombre":"carabaya","casos":3},{"nombre":"chucuito","casos":27},{"nombre":"el collao","casos":26},{"nombre":"en investigación","casos":7},{"nombre":"huancane","casos":17},{"nombre":"lampa","casos":6},{"nombre":"melgar","casos":7},{"nombre":"puno","casos":182},{"nombre":"san antonio de putina","casos":2},{"nombre":"san roman","casos":103},{"nombre":"sandia","casos":10},{"nombre":"yunguyo","casos":15}]},{"id":"PE-SAM","nombre":"san martin","nombre_original":"San Martín","casos":1042,"porcentaje":0.00792642572969519,"longitud":"-76.73","latitud":"-7.23","provincias":[{"nombre":"bellavista","casos":55},{"nombre":"el dorado","casos":7},{"nombre":"en investigación","casos":7},{"nombre":"huallaga","casos":23},{"nombre":"lamas","casos":50},{"nombre":"mariscal caceres","casos":70},{"nombre":"moyobamba","casos":285},{"nombre":"picota","casos":107},{"nombre":"rioja","casos":90},{"nombre":"san martin","casos":277},{"nombre":"tocache","casos":71}]},{"id":"PE-TAC","nombre":"tacna","nombre_original":"Tacna","casos":404,"porcentaje":0.0030732015305152175,"longitud":"-70.25","latitud":"-18.01","provincias":[{"nombre":"en investigación","casos":2},{"nombre":"jorge basadre","casos":3},{"nombre":"tacna","casos":398},{"nombre":"tarata","casos":1}]},{"id":"PE-TUM","nombre":"tumbes","nombre_original":"Tumbes","casos":998,"porcentaje":0.007591720612510364,"longitud":"-80.54","latitud":"-3.85","provincias":[{"nombre":"contralmirante villar","casos":71},{"nombre":"en investigación","casos":10},{"nombre":"tumbes","casos":790},{"nombre":"zarumilla","casos":127}]},{"id":"PE-UCA","nombre":"ucayali","nombre_original":"Ucayalí","casos":3713,"porcentaje":0.028244547729710405,"longitud":"-73.40","latitud":"-9.93","provincias":[{"nombre":"coronel portillo","casos":3593},{"nombre":"en investigación","casos":22},{"nombre":"padre abad","casos":98}]}],"genero":[{"nombre":"f","casos":51753,"porcentaje":0.39368168021968825},{"nombre":"m","casos":79706,"porcentaje":0.6063183197803117}],"edades":[{"nombre":"niños","casos":3383,"porcentaje":0.025734259350824212},{"nombre":"adolescentes","casos":2072,"porcentaje":0.0157615682456127},{"nombre":"jovenes","casos":25063,"porcentaje":0.19065259890916558},{"nombre":"adultos","casos":79272,"porcentaje":0.6030169102153523},{"nombre":"adultos mayores","casos":21669,"porcentaje":0.16483466327904517},{"nombre":"undefined","casos":0,"porcentaje":0}],"metododx":[{"nombre":"pr","casos":99744,"porcentaje":0.7587460729200739},{"nombre":"pcr","casos":31715,"porcentaje":0.24125392707992607}]}