{"ultima_fecha":20200523,"ultima_fecha_es":"23/05/2020","total":136880,"penultima_fecha":20200522,"penultima_fecha_es":"22/05/2020","penultimo_total":131462,"diferencia_total":5418,"departamentos":[{"id":"PE-AMA","nombre":"amazonas","nombre_original":"Amazonas","casos":623,"porcentaje":0.004551431911163062,"longitud":"-77.85","latitud":"-6.22","provincias":[{"nombre":"bagua","casos":169},{"nombre":"bongara","casos":20},{"nombre":"chachapoyas","casos":222},{"nombre":"condorcanqui","casos":1},{"nombre":"en investigación","casos":15},{"nombre":"luya","casos":19},{"nombre":"rodriguez de mendoza","casos":3},{"nombre":"utcubamba","casos":174}]},{"id":"PE-ANC","nombre":"ancash","nombre_original":"Áncash","casos":3519,"porcentaje":0.02570864991233197,"longitud":"-77.93","latitud":"-9.56","provincias":[{"nombre":"aija","casos":5},{"nombre":"antonio raimondi","casos":1},{"nombre":"asuncion","casos":1},{"nombre":"bolognesi","casos":7},{"nombre":"carhuaz","casos":26},{"nombre":"casma","casos":79},{"nombre":"corongo","casos":1},{"nombre":"en investigación","casos":13},{"nombre":"huaraz","casos":423},{"nombre":"huari","casos":55},{"nombre":"huarmey","casos":29},{"nombre":"huaylas","casos":28},{"nombre":"mariscal luzuriaga","casos":14},{"nombre":"pallasca","casos":2},{"nombre":"pomabamba","casos":25},{"nombre":"recuay","casos":17},{"nombre":"santa","casos":2768},{"nombre":"sihuas","casos":9},{"nombre":"yungay","casos":16}]},{"id":"PE-APU","nombre":"apurimac","nombre_original":"Apurímac","casos":224,"porcentaje":0.0016364699006428988,"longitud":"-72.94","latitud":"-14.05","provincias":[{"nombre":"abancay","casos":140},{"nombre":"andahuaylas","casos":63},{"nombre":"antabamba","casos":1},{"nombre":"aymaraes","casos":3},{"nombre":"chincheros","casos":6},{"nombre":"cotabambas","casos":8},{"nombre":"en investigación","casos":1},{"nombre":"grau","casos":2}]},{"id":"PE-ARE","nombre":"arequipa","nombre_original":"Arequipa","casos":2680,"porcentaje":0.019579193454120396,"longitud":"-71.54","latitud":"-16.40","provincias":[{"nombre":"arequipa","casos":2407},{"nombre":"camana","casos":27},{"nombre":"caraveli","casos":96},{"nombre":"castilla","casos":11},{"nombre":"caylloma","casos":42},{"nombre":"condesuyos","casos":2},{"nombre":"en investigación","casos":6},{"nombre":"islay","casos":88},{"nombre":"la union","casos":1}]},{"id":"PE-AYA","nombre":"ayacucho","nombre_original":"Ayacucho","casos":638,"porcentaje":0.004661016949152543,"longitud":"-74.22","latitud":"-13.16","provincias":[{"nombre":"cangallo","casos":6},{"nombre":"en investigación","casos":4},{"nombre":"huamanga","casos":501},{"nombre":"huanta","casos":28},{"nombre":"la mar","casos":4},{"nombre":"lucanas","casos":40},{"nombre":"parinacochas","casos":36},{"nombre":"paucar del sara sara","casos":7},{"nombre":"victor fajardo","casos":7},{"nombre":"vilcas huaman","casos":5}]},{"id":"PE-CAJ","nombre":"cajamarca","nombre_original":"Cajamarca","casos":664,"porcentaje":0.004850964348334308,"longitud":"-78.50","latitud":"-7.16","provincias":[{"nombre":"cajabamba","casos":4},{"nombre":"cajamarca","casos":231},{"nombre":"celendin","casos":23},{"nombre":"chota","casos":38},{"nombre":"contumaza","casos":13},{"nombre":"cutervo","casos":9},{"nombre":"en investigación","casos":6},{"nombre":"hualgayoc","casos":54},{"nombre":"jaen","casos":161},{"nombre":"san ignacio","casos":7},{"nombre":"san marcos","casos":4},{"nombre":"san miguel","casos":18},{"nombre":"san pablo","casos":8},{"nombre":"santa cruz","casos":88}]},{"id":"PE-CAL","nombre":"callao","nombre_original":"Callao","casos":10171,"porcentaje":0.07430596142606663,"longitud":"-77.12","latitud":"-12.06","provincias":[{"nombre":"callao","casos":9680},{"nombre":"en investigación","casos":491}]},{"id":"PE-CUS","nombre":"cusco","nombre_original":"Cusco","casos":911,"porcentaje":0.006655464640561075,"longitud":"-71.97","latitud":"-13.52","provincias":[{"nombre":"acomayo","casos":5},{"nombre":"anta","casos":40},{"nombre":"calca","casos":14},{"nombre":"canas","casos":12},{"nombre":"canchis","casos":23},{"nombre":"chumbivilcas","casos":19},{"nombre":"cusco","casos":676},{"nombre":"en investigación","casos":8},{"nombre":"espinar","casos":31},{"nombre":"la convencion","casos":38},{"nombre":"paruro","casos":13},{"nombre":"paucartambo","casos":6},{"nombre":"quispicanchi","casos":11},{"nombre":"urubamba","casos":15}]},{"id":"PE-HUV","nombre":"huancavelica","nombre_original":"Huancavelica","casos":483,"porcentaje":0.003528638223261251,"longitud":"-74.97","latitud":"-12.78","provincias":[{"nombre":"acobamba","casos":108},{"nombre":"angaraes","casos":72},{"nombre":"castrovirreyna","casos":19},{"nombre":"churcampa","casos":18},{"nombre":"en investigación","casos":2},{"nombre":"huancavelica","casos":212},{"nombre":"huaytara","casos":26},{"nombre":"tayacaja","casos":26}]},{"id":"PE-HUC","nombre":"huanuco","nombre_original":"Huánuco","casos":667,"porcentaje":0.004872881355932204,"longitud":"-76.24","latitud":"-9.93","provincias":[{"nombre":"ambo","casos":22},{"nombre":"dos de mayo","casos":9},{"nombre":"en investigación","casos":58},{"nombre":"huacaybamba","casos":1},{"nombre":"huamalies","casos":97},{"nombre":"huanuco","casos":369},{"nombre":"lauricocha","casos":8},{"nombre":"leoncio prado","casos":52},{"nombre":"marañon","casos":1},{"nombre":"pachitea","casos":18},{"nombre":"puerto inca","casos":28},{"nombre":"yarowilca","casos":4}]},{"id":"PE-ICA","nombre":"ica","nombre_original":"Ica","casos":2582,"porcentaje":0.01886323787258913,"longitud":"-75.729","latitud":"-14.07","provincias":[{"nombre":"chincha","casos":828},{"nombre":"en investigación","casos":12},{"nombre":"ica","casos":876},{"nombre":"nazca","casos":303},{"nombre":"palpa","casos":176},{"nombre":"pisco","casos":387}]},{"id":"PE-JUN","nombre":"junin","nombre_original":"Junín","casos":1581,"porcentaje":0.011550263004091175,"longitud":"-74.79","latitud":"-11.56","provincias":[{"nombre":"chanchamayo","casos":237},{"nombre":"chupaca","casos":132},{"nombre":"concepcion","casos":33},{"nombre":"en investigación","casos":18},{"nombre":"huancayo","casos":706},{"nombre":"jauja","casos":64},{"nombre":"junin","casos":100},{"nombre":"satipo","casos":97},{"nombre":"tarma","casos":103},{"nombre":"yauli","casos":91}]},{"id":"PE-LAL","nombre":"la libertad","nombre_original":"La Libertad","casos":3736,"porcentaje":0.027293980128579778,"longitud":"-78.28","latitud":"-7.97","provincias":[{"nombre":"ascope","casos":152},{"nombre":"chepen","casos":320},{"nombre":"en investigación","casos":22},{"nombre":"gran chimu","casos":5},{"nombre":"julcan","casos":1},{"nombre":"otuzco","casos":10},{"nombre":"pacasmayo","casos":105},{"nombre":"pataz","casos":214},{"nombre":"sanchez carrion","casos":21},{"nombre":"santiago de chuco","casos":11},{"nombre":"trujillo","casos":2638},{"nombre":"viru","casos":237}]},{"id":"PE-LAM","nombre":"lambayeque","nombre_original":"Lambayeque","casos":6953,"porcentaje":0.05079631794272355,"longitud":"-79.91","latitud":"-6.70","provincias":[{"nombre":"chiclayo","casos":4759},{"nombre":"en investigación","casos":14},{"nombre":"ferreñafe","casos":893},{"nombre":"lambayeque","casos":1287}]},{"id":"PE-LMA","nombre":"lima","nombre_original":"Lima Metropolitana","casos":77709,"porcentaje":0.5677162478082992,"longitud":"-76.95","latitud":"-11.9","provincias":[{"nombre":"en investigación","casos":11},{"nombre":"lima","casos":77698}]},{"id":"PE-LIM","nombre":"lima region","nombre_original":"Lima Región","casos":3993,"porcentaje":0.02917153711279953,"longitud":"-76.64","latitud":"-11.92","provincias":[{"nombre":"barranca","casos":159},{"nombre":"cajatambo","casos":7},{"nombre":"canta","casos":26},{"nombre":"cañete","casos":1102},{"nombre":"en investigación","casos":798},{"nombre":"huaral","casos":1046},{"nombre":"huarochiri","casos":217},{"nombre":"huaura","casos":607},{"nombre":"oyon","casos":16},{"nombre":"yauyos","casos":15}]},{"id":"PE-LOR","nombre":"loreto","nombre_original":"Loreto","casos":4758,"porcentaje":0.034760374050263006,"longitud":"-74.63","latitud":"-4.28","provincias":[{"nombre":"alto amazonas","casos":356},{"nombre":"datem del marañon","casos":70},{"nombre":"en investigación","casos":16},{"nombre":"loreto","casos":209},{"nombre":"mariscal ramon castilla","casos":192},{"nombre":"maynas","casos":3764},{"nombre":"putumayo","casos":1},{"nombre":"requena","casos":25},{"nombre":"ucayali","casos":125}]},{"id":"PE-MDD","nombre":"madre de dios","nombre_original":"Madre de Dios","casos":372,"porcentaje":0.0027177089421391,"longitud":"-70.53","latitud":"-12.05","provincias":[{"nombre":"manu","casos":1},{"nombre":"tahuamanu","casos":32},{"nombre":"tambopata","casos":339}]},{"id":"PE-MOQ","nombre":"moquegua","nombre_original":"Moquegua","casos":542,"porcentaje":0.003959672706019871,"longitud":"-70.94","latitud":"-17.20","provincias":[{"nombre":"en investigación","casos":12},{"nombre":"general sanchez cerro","casos":5},{"nombre":"ilo","casos":264},{"nombre":"mariscal nieto","casos":261}]},{"id":"PE-PAS","nombre":"pasco","nombre_original":"Pasco","casos":526,"porcentaje":0.003842781998831093,"longitud":"-75.53","latitud":"-10.48","provincias":[{"nombre":"daniel alcides carrion","casos":19},{"nombre":"en investigación","casos":77},{"nombre":"oxapampa","casos":138},{"nombre":"pasco","casos":292}]},{"id":"PE-PIU","nombre":"piura","nombre_original":"Piura","casos":6732,"porcentaje":0.04918176504967855,"longitud":"-80.63","latitud":"-5.20","provincias":[{"nombre":"ayabaca","casos":53},{"nombre":"en investigación","casos":26},{"nombre":"huancabamba","casos":16},{"nombre":"morropon","casos":222},{"nombre":"paita","casos":462},{"nombre":"piura","casos":3885},{"nombre":"sechura","casos":126},{"nombre":"sullana","casos":1532},{"nombre":"talara","casos":410}]},{"id":"PE-PUN","nombre":"puno","nombre_original":"Puno","casos":428,"porcentaje":0.0031268264172998246,"longitud":"-70.04","latitud":"-15.84","provincias":[{"nombre":"azangaro","casos":13},{"nombre":"carabaya","casos":3},{"nombre":"chucuito","casos":27},{"nombre":"el collao","casos":28},{"nombre":"en investigación","casos":7},{"nombre":"huancane","casos":17},{"nombre":"lampa","casos":9},{"nombre":"melgar","casos":7},{"nombre":"moho","casos":3},{"nombre":"puno","casos":182},{"nombre":"san antonio de putina","casos":3},{"nombre":"san roman","casos":104},{"nombre":"sandia","casos":10},{"nombre":"yunguyo","casos":15}]},{"id":"PE-SAM","nombre":"san martin","nombre_original":"San Martín","casos":1062,"porcentaje":0.007758620689655172,"longitud":"-76.73","latitud":"-7.23","provincias":[{"nombre":"bellavista","casos":55},{"nombre":"el dorado","casos":7},{"nombre":"en investigación","casos":8},{"nombre":"huallaga","casos":24},{"nombre":"lamas","casos":50},{"nombre":"mariscal caceres","casos":70},{"nombre":"moyobamba","casos":288},{"nombre":"picota","casos":107},{"nombre":"rioja","casos":92},{"nombre":"san martin","casos":288},{"nombre":"tocache","casos":73}]},{"id":"PE-TAC","nombre":"tacna","nombre_original":"Tacna","casos":456,"porcentaje":0.003331385154880187,"longitud":"-70.25","latitud":"-18.01","provincias":[{"nombre":"en investigación","casos":2},{"nombre":"jorge basadre","casos":3},{"nombre":"tacna","casos":450},{"nombre":"tarata","casos":1}]},{"id":"PE-TUM","nombre":"tumbes","nombre_original":"Tumbes","casos":1032,"porcentaje":0.007539450613676213,"longitud":"-80.54","latitud":"-3.85","provincias":[{"nombre":"contralmirante villar","casos":71},{"nombre":"en investigación","casos":10},{"nombre":"tumbes","casos":819},{"nombre":"zarumilla","casos":132}]},{"id":"PE-UCA","nombre":"ucayali","nombre_original":"Ucayalí","casos":3838,"porcentaje":0.02803915838690824,"longitud":"-73.40","latitud":"-9.93","provincias":[{"nombre":"coronel portillo","casos":3710},{"nombre":"en investigación","casos":22},{"nombre":"padre abad","casos":106}]}],"genero":[{"nombre":"f","casos":53912,"porcentaje":0.39386323787258914},{"nombre":"m","casos":82968,"porcentaje":0.6061367621274109}],"edades":[{"nombre":"niños","casos":3459,"porcentaje":0.02527030976037405},{"nombre":"adolescentes","casos":2137,"porcentaje":0.015612215078901228},{"nombre":"jovenes","casos":26153,"porcentaje":0.19106516656925773},{"nombre":"adultos","casos":82611,"porcentaje":0.6035286382232613},{"nombre":"adultos mayores","casos":22520,"porcentaje":0.16452367036820573},{"nombre":"undefined","casos":0,"porcentaje":0}],"metododx":[{"nombre":"pr","casos":104251,"porcentaje":0.7616233196960842},{"nombre":"pcr","casos":32629,"porcentaje":0.23837668030391584}]}